1
$GPVTG,,T,,M,0.254,N,0.470,K,A*23
$GPGGA,140534.00,4741.15326,N,00052.43310,W,1,07,1.38,35.2,M,47.2,M,,*76
$GPGSA,A,3,21,26,18,25,31,29,16,,,,,,2.52,1.38,2.11*08
$GPGSV,2,1,08,14,04,223,,16,20,292,31,18,51,140,28,21,49,159,39*75
$GPGSV,2,2,08,25,27,108,31,26,51,297,41,29,57,055,25,31,60,228,29*78
$GPGLL,4741.15326,N,00052.43310,W,140534.00,A,A*7B
$GPRMC,140535.00,A,4741.15309,N,00052.43312,W,0.581,,170420,,,A*60
2
$GPVTG,,T,,M,0.024,N,0.045,K,A*24
$GPGGA,140541.00,4741.15266,N,00052.43358,W,1,07,1.38,35.1,M,47.2,M,,*7E
$GPGSA,A,3,21,26,18,25,31,29,16,,,,,,2.52,1.38,2.11*08
$GPGSV,2,1,08,14,04,223,,16,20,292,39,18,51,140,39,21,49,159,43*70
$GPGSV,2,2,08,25,27,108,41,26,51,297,47,29,57,055,48,31,60,228,47*7A
$GPGLL,4741.15266,N,00052.43358,W,140541.00,A,A*70
$GPRMC,140542.00,A,4741.15265,N,00052.43358,W,0.033,,170420,,,A*69
3
$GPVTG,82.05,T,,M,0.850,N,1.575,K,A*09
$GPGGA,140548.00,4741.15295,N,00052.43152,W,1,07,1.38,33.1,M,47.2,M,,*75
$GPGSA,A,3,21,26,18,25,31,29,16,,,,,,2.52,1.38,2.11*08
$GPGSV,2,1,08,14,04,223,,16,20,292,43,18,51,140,44,21,49,159,44*70
$GPGSV,2,2,08,25,27,108,34,26,51,297,48,29,57,055,46,31,60,228,47*79
$GPGLL,4741.15295,N,00052.43152,W,140548.00,A,A*7D
$GPRMC,140549.00,A,4741.15303,N,00052.43116,W,1.020,80.62,170420,,,A*4A
4
$GPVTG,8.80,T,,M,3.869,N,7.165,K,A*3C
$GPGGA,140555.00,4741.15492,N,00052.42945,W,1,07,1.38,34.0,M,47.2,M,,*71
$GPGSA,A,3,21,26,18,25,31,29,16,,,,,,2.52,1.38,2.11*08
$GPGSV,2,1,08,14,04,223,,16,20,292,33,18,51,140,45,21,49,159,43*71
$GPGSV,2,2,08,25,27,108,38,26,51,297,44,29,57,055,45,31,60,228,34*7E
$GPGLL,4741.15492,N,00052.42945,W,140555.00,A,A*7F
$GPRMC,140556.00,A,4741.15601,N,00052.42933,W,4.080,5.92,170420,,,A*70
5
$GPVTG,254.71,T,,M,6.064,N,11.230,K,A*0D
$GPGGA,140602.00,4741.15814,N,00052.44034,W,1,07,1.38,31.6,M,47.2,M,,*78
$GPGSA,A,3,21,26,18,25,31,29,16,,,,,,2.52,1.38,2.11*08
$GPGSV,2,1,08,14,03,223,,16,20,292,32,18,51,140,42,21,49,159,47*74
$GPGSV,2,2,08,25,27,108,34,26,51,297,45,29,57,055,44,31,60,228,42*73
$GPGLL,4741.15814,N,00052.44034,W,140602.00,A,A*75
$GPRMC,140603.00,A,4741.15683,N,00052.44203,W,6.105,216.29,170420,,,A*79
6
$GPVTG,170.42,T,,M,2.670,N,4.944,K,A*33
$GPGGA,140609.00,4741.14707,N,00052.44231,W,1,07,1.38,31.6,M,47.2,M,,*78
$GPGSA,A,3,21,26,18,25,31,29,16,,,,,,2.52,1.38,2.11*08
$GPGSV,3,1,09,05,,,30,14,03,223,,16,21,292,24,18,51,139,40*48
$GPGSV,3,2,09,21,49,158,41,25,27,108,41,26,51,297,40,29,57,055,43*7E
$GPGSV,3,3,09,31,60,228,46*4E
$GPGLL,4741.14707,N,00052.44231,W,140609.00,A,A*75
$GPRMC,140607.00,A,4741.14650,N,00052.44204,W,1.605,168.00,170420,,,A*74
7
$GPVTG,,T,,M,0.124,N,0.230,K,A*25
$GPGGA,140613.00,4741.14601,N,00052.44157,W,1,07,1.38,28.4,M,47.2,M,,*7D
$GPGSA,A,3,21,26,18,25,31,29,16,,,,,,2.52,1.38,2.11*08
$GPGSV,3,1,09,05,,,28,14,03,223,,16,21,292,25,18,51,139,45*45
$GPGSV,3,2,09,21,49,158,37,25,27,108,44,26,52,298,44,29,56,055,42*72
$GPGSV,3,3,09,31,60,228,42*4A
$GPGLL,4741.14601,N,00052.44157,W,140613.00,A,A*7A
$GPRMC,140614.00,A,4741.14596,N,00052.44172,W,0.284,,170420,,,A*60
8
$GPVTG,99.57,T,,M,9.769,N,18.092,K,A*3C
$GPGGA,140620.00,4741.14260,N,00052.43012,W,1,07,1.38,27.2,M,47.2,M,,*70
$GPGSA,A,3,21,26,18,25,31,29,16,,,,,,2.52,1.38,2.11*08
$GPGSV,3,1,09,05,,,28,14,03,223,,16,21,292,34,18,51,139,43*43
$GPGSV,3,2,09,21,49,158,44,25,27,108,44,26,52,298,40,29,56,055,42*72
$GPGSV,3,3,09,31,60,227,47*40
$GPGLL,4741.14260,N,00052.43012,W,140620.00,A,A*7E
$GPRMC,140621.00,A,4741.14225,N,00052.42619,W,9.502,96.92,170420,,,A*4F
9
$GPVTG,52.97,T,,M,11.027,N,20.422,K,A*07
$GPGGA,140627.00,4741.14670,N,00052.40472,W,1,07,1.38,26.7,M,47.2,M,,*77
$GPGSA,A,3,21,26,18,25,31,29,16,,,,,,2.52,1.38,2.11*08
$GPGSV,2,1,08,14,03,223,,16,21,292,25,18,51,139,45,21,49,158,37*7C
$GPGSV,2,2,08,25,27,108,47,26,52,298,25,29,56,055,43,31,60,227,36*77
$GPGLL,4741.14670,N,00052.40472,W,140627.00,A,A*7D
$GPRMC,140628.00,A,4741.14893,N,00052.40068,W,13.262,51.20,170420,,,A*7B
10
$GPVTG,66.31,T,,M,14.975,N,27.735,K,A*05
$GPGGA,140633.00,4741.15965,N,00052.37549,W,1,07,1.38,25.2,M,47.2,M,,*77
$GPGSA,A,3,21,26,18,25,31,29,16,,,,,,2.53,1.38,2.11*09
$GPGSV,2,1,08,14,03,223,,16,21,292,18,18,51,139,45,21,49,158,46*74
$GPGSV,2,2,08,25,27,108,43,26,52,298,37,29,56,055,42,31,60,227,43*73
$GPGLL,4741.15965,N,00052.37549,W,140633.00,A,A*7B
$GPRMC,140634.00,A,4741.16122,N,00052.36999,W,14.791,67.48,170420,,,A*74
11
$GPVTG,87.56,T,,M,9.915,N,18.363,K,A*3A
$GPGGA,140639.00,4741.16392,N,00052.34322,W,1,07,1.38,23.5,M,47.2,M,,*75
$GPGSA,A,3,21,26,18,25,31,29,16,,,,,,2.53,1.38,2.11*09
$GPGSV,2,1,08,14,03,223,,16,21,292,26,18,51,139,44,21,49,158,45*7B
$GPGSV,2,2,08,25,27,108,45,26,52,298,39,29,56,055,43,31,60,227,48*71
$GPGLL,4741.16392,N,00052.34322,W,140639.00,A,A*78
$GPRMC,140640.00,A,4741.16402,N,00052.33953,W,8.214,87.96,170420,,,A*4B
12
$GPVTG,87.41,T,,M,12.677,N,23.479,K,A*09
$GPGGA,140645.00,4741.16463,N,00052.31932,W,1,07,1.38,25.2,M,47.2,M,,*78
$GPGSA,A,3,21,26,18,25,31,29,16,,,,,,2.53,1.38,2.11*09
$GPGSV,3,1,09,01,,,21,14,03,223,,16,21,292,26,18,51,139,42*4C
$GPGSV,3,2,09,21,49,158,47,25,27,108,45,26,52,298,38,29,56,055,41*7C
$GPGSV,3,3,09,31,60,227,47*40
$GPGLL,4741.16463,N,00052.31932,W,140645.00,A,A*74
$GPRMC,140646.00,A,4741.16479,N,00052.31371,W,13.803,87.28,170420,,,A*7A
13
$GPVTG,86.50,T,,M,13.696,N,25.365,K,A*0A
$GPGGA,140652.00,4741.16569,N,00052.27636,W,1,07,1.38,28.3,M,47.2,M,,*75
$GPGSA,A,3,21,26,18,25,31,29,16,,,,,,2.53,1.38,2.11*09
$GPGSV,2,1,08,14,03,223,,16,21,292,20,18,51,139,43,21,49,158,46*79
$GPGSV,2,2,08,25,27,108,47,26,52,298,42,29,56,055,41,31,60,227,48*7D
$GPGLL,4741.16569,N,00052.27636,W,140652.00,A,A*75
$GPRMC,140653.00,A,4741.16593,N,00052.27088,W,12.975,86.49,170420,,,A*7E
14
$GPVTG,132.56,T,,M,3.478,N,6.441,K,A*31
$GPGGA,140659.00,4741.16362,N,00052.25136,W,1,07,1.38,29.1,M,47.2,M,,*75
$GPGSA,A,3,21,26,18,25,31,29,16,,,,,,2.53,1.38,2.11*09
$GPGSV,2,1,08,14,03,223,,16,21,292,20,18,51,139,41,21,49,158,49*74
$GPGSV,2,2,08,25,27,108,38,26,52,298,39,29,56,055,45,31,60,227,45*70
$GPGLL,4741.16362,N,00052.25136,W,140659.00,A,A*76
$GPRMC,140700.00,A,4741.16241,N,00052.25046,W,5.676,152.16,170420,,,A*79
15
$GPVTG,186.18,T,,M,13.558,N,25.110,K,A*36
$GPGGA,140706.00,4741.14378,N,00052.25173,W,1,07,1.38,26.2,M,47.2,M,,*7A
$GPGSA,A,3,21,26,18,25,31,29,16,,,,,,2.53,1.38,2.12*0A
$GPGSV,2,1,08,14,03,223,,16,21,292,31,18,51,139,34,21,49,158,41*7E
$GPGSV,2,2,08,25,27,108,23,26,52,298,39,29,56,055,40,31,60,227,42*78
$GPGLL,4741.14378,N,00052.25173,W,140706.00,A,A*75
$GPRMC,140707.00,A,4741.14015,N,00052.25223,W,13.003,186.05,170420,,,A*46
16
$GPVTG,179.86,T,,M,10.776,N,19.957,K,A*38
$GPGGA,140713.00,4741.12466,N,00052.25339,W,1,07,1.38,21.6,M,47.2,M,,*7F
$GPGSA,A,3,21,26,18,25,31,29,16,,,,,,2.53,1.38,2.12*0A
$GPGSV,2,1,08,14,03,223,,16,21,292,29,18,52,138,38,21,49,158,41*79
$GPGSV,2,2,08,25,27,108,31,26,52,298,42,29,56,055,41,31,60,227,33*70
$GPGLL,4741.12466,N,00052.25339,W,140713.00,A,A*73
$GPRMC,140714.00,A,4741.12120,N,00052.25317,W,12.726,177.39,170420,,,A*43
17
$GPVTG,183.89,T,,M,13.282,N,24.599,K,A*3F
$GPGGA,140720.00,4741.09786,N,00052.25498,W,1,07,1.38,22.5,M,47.2,M,,*74
$GPGSA,A,3,21,26,18,25,31,29,16,,,,,,2.53,1.38,2.12*0A
$GPGSV,2,1,08,14,03,223,,16,21,292,25,18,52,138,38,21,50,158,43*7F
$GPGSV,2,2,08,25,27,109,24,26,52,298,25,29,56,055,43,31,60,227,45*77
$GPGLL,4741.09786,N,00052.25498,W,140720.00,A,A*78
$GPRMC,140721.00,A,4741.09428,N,00052.25557,W,12.218,186.46,170420,,,A*4E
18
$GPVTG,160.53,T,,M,14.603,N,27.045,K,A*38
$GPGGA,140727.00,4741.07023,N,00052.24821,W,1,07,1.38,22.8,M,47.2,M,,*77
$GPGSA,A,3,21,26,18,25,31,29,16,,,,,,2.53,1.38,2.12*0A
$GPGSV,3,1,09,05,,,38,14,03,223,,16,21,292,18,18,52,138,36*4C
$GPGSV,3,2,09,21,50,158,38,25,27,109,45,26,52,298,43,29,55,055,44*77
$GPGSV,3,3,09,31,59,226,43*4F
$GPGLL,4741.07023,N,00052.24821,W,140727.00,A,A*76
$GPRMC,140728.00,A,4741.06621,N,00052.24582,W,14.681,159.31,170420,,,A*4A
19
$GPVTG,169.32,T,,M,14.920,N,27.632,K,A*3E
$GPGGA,140734.00,4741.03972,N,00052.23321,W,1,07,1.47,24.1,M,47.2,M,,*77
$GPGSA,A,3,21,26,18,25,31,29,16,,,,,,2.72,1.47,2.29*09
$GPGSV,3,1,09,05,,,20,14,03,223,,16,21,292,12,18,52,138,40*4E
$GPGSV,3,2,09,21,50,158,41,25,27,109,28,26,52,298,24,29,55,055,48*7F
$GPGSV,3,3,09,31,59,226,33*48
$GPGLL,4741.03972,N,00052.23321,W,140734.00,A,A*71
$GPRMC,140735.00,A,4741.03530,N,00052.23121,W,16.158,165.74,170420,,,A*45
20
$GPVTG,159.51,T,,M,19.632,N,36.359,K,A*31
$GPGGA,140741.00,4741.00572,N,00052.21669,W,1,07,1.38,13.6,M,47.2,M,,*7A
$GPGSA,A,3,21,26,18,25,31,29,16,,,,,,2.53,1.38,2.12*0A
$GPGSV,3,1,09,05,,,24,14,03,223,,16,21,292,21,18,52,138,40*4A
$GPGSV,3,2,09,21,50,158,41,25,27,109,30,26,52,298,34,29,55,055,46*79
$GPGSV,3,3,09,31,59,226,26*4C
$GPGLL,4741.00572,N,00052.21669,W,140741.00,A,A*77
$GPRMC,140742.00,A,4741.00077,N,00052.21555,W,17.399,176.25,170420,,,A*4D
21
$GPVTG,197.14,T,,M,18.517,N,34.293,K,A*32
$GPGGA,140748.00,4740.97128,N,00052.20720,W,1,07,1.38,6.6,M,47.2,M,,*4E
$GPGSA,A,3,21,26,18,25,31,29,16,,,,,,2.53,1.38,2.12*0A
$GPGSV,3,1,09,05,,,24,14,03,223,,16,21,292,38,18,52,138,43*41
$GPGSV,3,2,09,21,50,158,40,25,27,109,35,26,52,298,41,29,55,055,39*77
$GPGSV,3,3,09,31,59,226,44*48
$GPGLL,4740.97128,N,00052.20720,W,140748.00,A,A*77
$GPRMC,140749.00,A,4740.96600,N,00052.20964,W,19.983,201.10,170420,,,A*4B
22
$GPVTG,218.83,T,,M,24.587,N,45.535,K,A*33
$GPGGA,140755.00,4740.93364,N,00052.23692,W,1,07,1.57,23.0,M,47.2,M,,*7F
$GPGSA,A,3,21,26,18,25,31,29,16,,,,,,3.54,1.57,3.18*0E
$GPGSV,3,1,09,05,,,26,14,03,223,,16,21,292,25,18,52,138,43*4F
$GPGSV,3,2,09,21,50,158,42,25,27,109,27,26,52,298,32,29,55,055,43*7F
$GPGSV,3,3,09,31,59,226,43*4F
$GPGLL,4740.93364,N,00052.23692,W,140755.00,A,A*7E
$GPRMC,140756.00,A,4740.92839,N,00052.24341,W,24.839,221.48,170420,,,A*4D
23
$GPVTG,239.21,T,,M,25.184,N,46.640,K,A*3C
$GPGGA,140802.00,4740.90149,N,00052.28984,W,1,07,1.38,21.8,M,47.2,M,,*7C
$GPGSA,A,3,21,26,18,25,31,29,16,,,,,,2.53,1.38,2.12*0A
$GPGSV,2,1,08,14,03,223,,16,21,292,28,18,52,138,45,21,50,158,44*7F
$GPGSV,2,2,08,25,27,109,25,26,52,298,44,29,55,055,38,31,59,226,41*71
$GPGLL,4740.90149,N,00052.28984,W,140802.00,A,A*7E
$GPRMC,140803.00,A,4740.89833,N,00052.29863,W,24.304,241.92,170420,,,A*40
24
$GPVTG,248.82,T,,M,23.741,N,43.969,K,A*3B
$GPGGA,140809.00,4740.88368,N,00052.35273,W,1,07,1.38,27.5,M,47.2,M,,*7B
$GPGSA,A,3,21,26,18,25,31,29,16,,,,,,2.53,1.38,2.12*0A
$GPGSV,3,1,09,04,,,33,14,03,223,,16,21,292,31,18,52,138,43*4F
$GPGSV,3,2,09,21,50,158,42,25,27,109,31,26,52,298,43,29,55,055,38*72
$GPGSV,3,3,09,31,59,226,43*4F
$GPGLL,4740.88368,N,00052.35273,W,140809.00,A,A*72
$GPRMC,140810.00,A,4740.88136,N,00052.36197,W,23.946,248.05,170420,,,A*4F
25
$GPVTG,247.88,T,,M,20.741,N,38.412,K,A*30
$GPGGA,140816.00,4740.86810,N,00052.41311,W,1,07,1.38,31.9,M,47.2,M,,*72
$GPGSA,A,3,21,26,18,25,31,29,16,,,,,,2.53,1.38,2.12*0A
$GPGSV,2,1,08,14,03,223,,16,21,292,45,18,52,138,44,21,50,158,46*77
$GPGSV,2,2,08,25,27,109,34,26,52,298,47,29,55,055,41,31,59,226,43*7E
$GPGLL,4740.86810,N,00052.41311,W,140816.00,A,A*70
$GPRMC,140817.00,A,4740.86594,N,00052.42091,W,20.369,246.83,170420,,,A*4A
26
$GPVTG,247.10,T,,M,11.964,N,22.157,K,A*35
$GPGGA,140822.00,4740.85763,N,00052.45102,W,1,07,1.38,34.4,M,47.2,M,,*71
$GPGSA,A,3,21,26,18,25,31,29,16,,,,,,2.53,1.38,2.12*0A
$GPGSV,2,1,08,14,03,222,,16,22,293,45,18,52,138,42,21,50,158,46*72
$GPGSV,2,2,08,25,27,109,35,26,52,298,43,29,55,055,39,31,59,226,40*77
$GPGLL,4740.85763,N,00052.45102,W,140822.00,A,A*7B
$GPRMC,140823.00,A,4740.85639,N,00052.45558,W,11.970,247.53,170420,,,A*41
27
$GPVTG,248.35,T,,M,19.465,N,36.050,K,A*3A
$GPGGA,140828.00,4740.84773,N,00052.48660,W,1,07,1.38,35.7,M,47.2,M,,*77
$GPGSA,A,3,21,26,18,25,31,29,16,,,,,,2.53,1.38,2.12*0A
$GPGSV,3,1,09,04,,,26,14,03,222,,16,22,293,46,18,52,138,32*4E
$GPGSV,3,2,09,21,50,157,41,25,27,109,34,26,52,298,44,29,55,055,39*7D
$GPGSV,3,3,09,31,59,226,42*4E
$GPGLL,4740.84773,N,00052.48660,W,140828.00,A,A*7F
$GPRMC,140829.00,A,4740.84550,N,00052.49406,W,20.033,246.62,170420,,,A*4F
28
$GPVTG,248.14,T,,M,18.854,N,34.918,K,A*31
$GPGGA,140835.00,4740.83333,N,00052.54040,W,1,07,1.38,34.1,M,47.2,M,,*72
$GPGSA,A,3,21,26,18,25,31,29,16,,,,,,2.53,1.38,2.12*0A
$GPGSV,3,1,09,04,,,26,14,03,222,,16,22,293,46,18,52,138,44*4F
$GPGSV,3,2,09,21,50,157,45,25,26,109,22,26,53,298,46,29,55,055,39*7C
$GPGSV,3,3,09,31,59,226,43*4F
$GPGLL,4740.83333,N,00052.54040,W,140835.00,A,A*7D
$GPRMC,140836.00,A,4740.83157,N,00052.54731,W,17.536,247.87,170420,,,A*40
29
$GPVTG,247.96,T,,M,20.093,N,37.213,K,A*3F
$GPGGA,140842.00,4740.82230,N,00052.58351,W,1,07,1.38,34.6,M,47.2,M,,*79
$GPGSA,A,3,21,26,18,25,31,29,16,,,,,,2.53,1.38,2.12*0A
$GPGSV,3,1,09,04,,,23,14,03,222,,16,22,293,46,18,52,138,43*4D
$GPGSV,3,2,09,21,50,157,45,25,26,109,34,26,53,298,45,29,55,055,40*76
$GPGSV,3,3,09,31,59,226,42*4E
$GPGLL,4740.82230,N,00052.58351,W,140842.00,A,A*71
$GPRMC,140843.00,A,4740.82003,N,00052.59184,W,22.285,247.67,170420,,,A*41
30
$GPVTG,247.29,T,,M,26.735,N,49.514,K,A*3F
$GPGGA,140849.00,4740.80406,N,00052.64939,W,1,07,1.38,32.3,M,47.2,M,,*7B
$GPGSA,A,3,21,26,18,25,31,29,16,,,,,,2.53,1.38,2.12*0A
$GPGSV,3,1,09,04,,,33,14,03,222,27,16,22,293,30,18,52,138,43*48
$GPGSV,3,2,09,21,50,157,44,25,26,109,28,26,53,298,46,29,55,055,39*77
$GPGSV,3,3,09,31,59,226,41*4D
$GPGLL,4740.80406,N,00052.64939,W,140849.00,A,A*70
$GPRMC,140850.00,A,4740.80115,N,00052.65930,W,26.215,246.24,170420,,,A*44
31
$GPVTG,248.09,T,,M,22.345,N,41.384,K,A*32
$GPGGA,140856.00,4740.78397,N,00052.71489,W,1,07,1.38,30.9,M,47.2,M,,*77
$GPGSA,A,3,21,26,18,25,31,29,16,,,,,,2.53,1.38,2.12*0A
$GPGSV,3,1,09,04,,,29,14,03,222,,16,22,293,43,18,52,138,42*43
$GPGSV,3,2,09,21,50,157,46,25,26,109,32,26,53,298,46,29,55,055,39*7E
$GPGSV,3,3,09,31,59,226,41*4D
$GPGLL,4740.78397,N,00052.71489,W,140856.00,A,A*74
$GPRMC,140857.00,A,4740.78185,N,00052.72283,W,20.113,248.17,170420,,,A*45
32
$GPVTG,219.70,T,,M,9.715,N,17.991,K,A*0D
$GPGGA,140903.00,4740.77276,N,00052.75136,W,1,07,1.38,30.5,M,47.2,M,,*7E
$GPGSA,A,3,21,26,18,25,31,29,16,,,,,,2.53,1.38,2.12*0A
$GPGSV,2,1,08,14,03,222,,16,22,293,26,18,52,138,44,21,50,157,40*78
$GPGSV,2,2,08,25,26,109,31,26,53,298,46,29,55,055,43,31,59,226,46*7D
$GPGLL,4740.77276,N,00052.75136,W,140903.00,A,A*71
$GPRMC,140904.00,A,4740.77017,N,00052.75257,W,9.829,194.58,170420,,,A*7B
33
$GPVTG,144.42,T,,M,8.437,N,15.625,K,A*07
$GPGGA,140910.00,4740.75567,N,00052.74055,W,1,07,1.38,28.7,M,47.2,M,,*77
$GPGSA,A,3,21,26,18,25,31,29,16,,,,,,2.53,1.38,2.12*0A
$GPGSV,3,1,09,05,,,39,14,03,222,,16,22,293,33,18,52,138,42*44
$GPGSV,3,2,09,21,50,157,46,25,26,109,34,26,53,298,45,29,55,055,45*70
$GPGSV,3,3,09,31,59,226,45*49
$GPGLL,4740.75567,N,00052.74055,W,140910.00,A,A*73
$GPRMC,140911.00,A,4740.75366,N,00052.73881,W,8.261,150.89,170420,,,A*7C
34
$GPVTG,158.10,T,,M,13.455,N,24.919,K,A*31
$GPGGA,140917.00,4740.73581,N,00052.72657,W,1,07,1.38,28.2,M,47.2,M,,*79
$GPGSA,A,3,21,26,18,25,31,29,16,,,,,,2.53,1.38,2.12*0A
$GPGSV,3,1,09,05,,,39,14,03,222,,16,22,293,22,18,52,138,41*47
$GPGSV,3,2,09,21,50,157,43,25,26,109,45,26,53,298,45,29,55,055,45*73
$GPGSV,3,3,09,31,59,226,44*48
$GPGLL,4740.73581,N,00052.72657,W,140917.00,A,A*78
$GPRMC,140918.00,A,4740.73243,N,00052.72464,W,12.769,158.88,170420,,,A*4C
35
$GPVTG,74.72,T,,M,4.879,N,9.036,K,A*05
$GPGGA,140924.00,4740.72530,N,00052.71097,W,1,07,1.38,26.1,M,47.2,M,,*76
$GPGSA,A,3,21,26,18,25,31,29,16,,,,,,2.53,1.38,2.12*0A
$GPGSV,3,1,09,05,,,38,14,03,222,,16,22,293,29,18,52,138,43*4F
$GPGSV,3,2,09,21,50,157,47,25,26,109,33,26,53,298,41,29,55,055,33*73
$GPGSV,3,3,09,31,59,226,47*4B
$GPGLL,4740.72530,N,00052.71097,W,140924.00,A,A*7A
$GPRMC,140925.00,A,4740.72578,N,00052.70924,W,3.928,70.72,170420,,,A*42
36
$GPVTG,63.87,T,,M,3.353,N,6.210,K,A*04
$GPGGA,140931.00,4740.72816,N,00052.70177,W,1,07,1.38,25.4,M,47.2,M,,*73
$GPGSA,A,3,21,26,18,25,31,29,16,,,,,,2.53,1.38,2.12*0A
$GPGSV,3,1,10,04,,,35,05,,,36,14,02,222,,16,22,293,29*79
$GPGSV,3,2,10,18,52,138,46,21,50,157,47,25,26,109,40,26,53,298,40*73
$GPGSV,3,3,10,29,55,055,45,31,59,226,45*7B
$GPGLL,4740.72816,N,00052.70177,W,140931.00,A,A*79
$GPRMC,140932.00,A,4740.72862,N,00052.70041,W,3.980,62.56,170420,,,A*4F
37
$GPVTG,55.54,T,,M,4.091,N,7.577,K,A*02
$GPGGA,140938.00,4740.73208,N,00052.68803,W,1,07,1.38,24.1,M,47.2,M,,*79
$GPGSA,A,3,21,26,18,25,31,29,16,,,,,,2.53,1.38,2.12*0A
$GPGSV,3,1,10,04,,,36,05,,,38,14,02,222,,16,22,293,36*7A
$GPGSV,3,2,10,18,53,137,46,21,51,157,43,25,26,109,41,26,53,298,40*79
$GPGSV,3,3,10,29,55,055,44,31,59,226,37*7F
$GPGLL,4740.73208,N,00052.68803,W,140938.00,A,A*77
$GPRMC,140939.00,A,4740.73298,N,00052.68686,W,4.626,34.93,170420,,,A*40
38
$GPVTG,335.58,T,,M,11.168,N,20.683,K,A*35
$GPGGA,140945.00,4740.74694,N,00052.69216,W,1,07,1.38,26.6,M,47.2,M,,*7F
$GPGSA,A,3,21,26,18,25,31,29,16,,,,,,2.53,1.38,2.12*0A
$GPGSV,3,1,09,05,,,41,14,02,222,,16,22,293,40,18,53,137,42*40
$GPGSV,3,2,09,21,51,157,35,25,26,109,30,26,53,298,40,29,55,055,48*79
$GPGSV,3,3,09,31,59,226,45*49
$GPGLL,4740.74694,N,00052.69216,W,140945.00,A,A*74
$GPRMC,140946.00,A,4740.74977,N,00052.69392,W,11.036,336.23,170420,,,A*4D
39
$GPVTG,16.58,T,,M,8.622,N,15.968,K,A*3A
$GPGGA,140952.00,4740.76589,N,00052.69558,W,1,07,1.38,26.6,M,47.2,M,,*79
$GPGSA,A,3,21,26,18,25,31,29,16,,,,,,2.53,1.38,2.12*0A
$GPGSV,3,1,10,04,,,26,05,,,37,14,02,222,,16,22,293,30*72
$GPGSV,3,2,10,18,53,137,38,21,51,157,42,25,26,109,41,26,53,298,45*74
$GPGSV,3,3,10,29,54,055,46,31,59,225,45*7A
$GPGLL,4740.76589,N,00052.69558,W,140952.00,A,A*72
$GPRMC,140953.00,A,4740.76805,N,00052.69469,W,7.671,15.15,170420,,,A*49
40
$GPVTG,309.65,T,,M,4.716,N,8.734,K,A*38
$GPGGA,140959.00,4740.77597,N,00052.70227,W,1,07,1.38,24.1,M,47.2,M,,*7E
$GPGSA,A,3,21,26,18,25,31,29,16,,,,,,2.53,1.38,2.12*0A
$GPGSV,3,1,09,05,,,31,14,02,222,29,16,22,293,26,18,53,137,39*40
$GPGSV,3,2,09,21,51,157,45,25,26,109,27,26,53,298,34,29,54,055,29*7D
$GPGSV,3,3,09,31,59,225,45*4A
$GPGLL,4740.77597,N,00052.70227,W,140959.00,A,A*70
$GPRMC,141000.00,A,4740.77640,N,00052.70357,W,3.243,,170420,,,A*64
41
$GPVTG,,T,,M,0.428,N,0.792,K,A*21
$GPGGA,141006.00,4740.77667,N,00052.70397,W,1,07,1.38,24.2,M,47.2,M,,*79
$GPGSA,A,3,21,26,18,25,31,29,16,,,,,,2.53,1.38,2.12*0A
$GPGSV,3,1,09,05,,,28,14,02,222,24,16,22,293,40,18,53,137,27*4A
$GPGSV,3,2,09,21,51,157,36,25,26,109,28,26,53,298,27,29,54,055,32*7E
$GPGSV,3,3,09,31,59,225,29*40
$GPGLL,4740.77667,N,00052.70397,W,141006.00,A,A*74
$GPRMC,141007.00,A,4740.77658,N,00052.70378,W,0.242,,170420,,,A*65
42
$GPVTG,,T,,M,0.198,N,0.367,K,A*21
$GPGGA,141013.00,4740.77680,N,00052.70319,W,1,07,1.38,22.8,M,47.2,M,,*7E
$GPGSA,A,3,21,26,18,25,31,29,16,,,,,,2.53,1.38,2.12*0A
$GPGSV,3,1,09,05,,,30,14,02,222,16,16,22,293,41,18,53,137,29*4D
$GPGSV,3,2,09,21,51,157,32,25,26,109,30,26,53,298,30,29,54,055,29*7F
$GPGSV,3,3,09,31,59,225,25*4C
$GPGLL,4740.77680,N,00052.70319,W,141013.00,A,A*7F
$GPRMC,141014.00,A,4740.77694,N,00052.70310,W,0.560,,170420,,,A*6E
43
$GPVTG,,T,,M,0.214,N,0.396,K,A*28
$GPGGA,141020.00,4740.77650,N,00052.70346,W,1,07,1.38,22.5,M,47.2,M,,*74
$GPGSA,A,3,21,26,18,25,31,29,16,,,,,,2.53,1.38,2.12*0A
$GPGSV,3,1,10,04,,,27,05,,,31,14,02,222,16,16,22,293,39*7B
$GPGSV,3,2,10,18,53,137,23,21,51,157,34,25,26,109,29,26,53,298,31*72
$GPGSV,3,3,10,29,54,055,27,31,59,225,17*7A
$GPGLL,4740.77650,N,00052.70346,W,141020.00,A,A*78
$GPRMC,141021.00,A,4740.77649,N,00052.70342,W,0.208,,170420,,,A*66
44
$GPVTG,,T,,M,0.113,N,0.209,K,A*2B
$GPGGA,141027.00,4740.77593,N,00052.70361,W,1,07,1.38,21.6,M,47.2,M,,*7A
$GPGSA,A,3,21,26,18,25,31,29,16,,,,,,2.53,1.38,2.12*0A
$GPGSV,3,1,10,04,,,33,05,,,31,14,02,222,21,16,22,293,42*76
$GPGSV,3,2,10,18,53,137,28,21,51,157,36,25,26,109,29,26,53,298,35*7F
$GPGSV,3,3,10,29,54,055,27,31,59,225,20*7E
$GPGLL,4740.77593,N,00052.70361,W,141027.00,A,A*76
$GPRMC,141028.00,A,4740.77573,N,00052.70348,W,0.428,,170420,,,A*6B
45
$GPVTG,,T,,M,0.413,N,0.764,K,A*20
$GPGGA,141034.00,4740.77395,N,00052.70342,W,1,08,1.35,16.3,M,47.2,M,,*7A
$GPGSA,A,3,21,26,18,04,31,29,16,05,,,,,2.50,1.35,2.10*00
$GPGSV,3,1,10,04,11,313,29,05,11,053,27,14,02,222,22,16,22,293,41*7D
$GPGSV,3,2,10,18,53,137,22,21,51,157,32,25,26,109,,26,53,298,34*7B
$GPGSV,3,3,10,29,54,055,22,31,59,225,20*7B
$GPGLL,4740.77395,N,00052.70342,W,141034.00,A,A*75
$GPRMC,141035.00,A,4740.77395,N,00052.70317,W,0.521,,170420,,,A*6B
46
$GPVTG,,T,,M,0.117,N,0.217,K,A*20
$GPGGA,141041.00,4740.77277,N,00052.70338,W,1,09,1.23,14.0,M,47.2,M,,*7F
$GPGSA,A,3,21,26,18,25,04,31,29,16,05,,,,2.23,1.23,1.87*09
$GPGSV,3,1,10,04,11,313,33,05,11,053,30,14,02,222,24,16,22,293,41*76
$GPGSV,3,2,10,18,53,137,21,21,51,157,36,25,25,110,28,26,53,298,36*7F
$GPGSV,3,3,10,29,54,055,16,31,59,225,15*7A
$GPGLL,4740.77277,N,00052.70338,W,141041.00,A,A*77
$GPRMC,141042.00,A,4740.77266,N,00052.70337,W,0.062,,170420,,,A*66
47
$GPVTG,,T,,M,0.252,N,0.467,K,A*23
$GPGGA,141048.00,4740.77139,N,00052.70384,W,1,09,1.23,9.7,M,47.2,M,,*43
$GPGSA,A,3,21,26,18,25,04,31,29,16,05,,,,2.23,1.23,1.87*09
$GPGSV,3,1,10,04,11,313,30,05,11,053,28,14,02,222,22,16,23,293,42*78
$GPGSV,3,2,10,18,53,136,22,21,51,157,36,25,25,110,26,26,53,298,39*7C
$GPGSV,3,3,10,29,54,055,18,31,59,225,15*74
$GPGLL,4740.77139,N,00052.70384,W,141048.00,A,A*70
$GPRMC,141049.00,A,4740.77116,N,00052.70390,W,0.288,,170420,,,A*62
48
$GPVTG,,T,,M,0.087,N,0.160,K,A*2B
$GPGGA,141055.00,4740.77043,N,00052.70419,W,1,09,1.19,6.0,M,47.2,M,,*41
$GPGSA,A,3,21,26,18,25,04,31,29,16,05,,,,2.06,1.19,1.68*06
$GPGSV,3,1,10,04,11,313,22,05,11,053,30,14,02,222,19,16,23,293,41*79
$GPGSV,3,2,10,18,53,136,21,21,51,157,33,25,25,110,29,26,54,298,37*7C
$GPGSV,3,3,10,29,54,055,22,31,59,225,16*7E
$GPGLL,4740.77043,N,00052.70419,W,141055.00,A,A*73
$GPRMC,141056.00,A,4740.77035,N,00052.70436,W,0.088,,170420,,,A*65
49
$GPVTG,,T,,M,0.047,N,0.086,K,A*2E
$GPGGA,141102.00,4740.77079,N,00052.70514,W,1,09,1.19,8.2,M,47.2,M,,*4B
$GPGSA,A,3,21,26,18,25,04,31,29,16,05,,,,2.06,1.19,1.68*06
$GPGSV,3,1,10,04,11,313,28,05,11,053,28,14,02,222,15,16,23,293,40*77
$GPGSV,3,2,10,18,53,136,22,21,51,157,35,25,25,110,32,26,54,298,36*72
$GPGSV,3,3,10,29,54,055,26,31,58,224,19*75
$GPGLL,4740.77079,N,00052.70514,W,141102.00,A,A*75
$GPRMC,141103.00,A,4740.77086,N,00052.70540,W,0.090,,170420,,,A*65
50
$GPVTG,,T,,M,0.075,N,0.139,K,A*2A
$GPGGA,141109.00,4740.77145,N,00052.70585,W,1,09,1.19,11.9,M,47.2,M,,*75
$GPGSA,A,3,21,26,18,25,04,31,29,16,05,,,,2.06,1.19,1.68*06
$GPGSV,3,1,10,04,11,313,24,05,11,053,29,14,02,222,,16,23,293,40*7E
$GPGSV,3,2,10,18,53,136,18,21,51,157,33,25,25,110,31,26,54,298,30*78
$GPGSV,3,3,10,29,54,055,24,31,58,224,26*7B
$GPGLL,4740.77145,N,00052.70585,W,141109.00,A,A*78
$GPRMC,141110.00,A,4740.77165,N,00052.70578,W,0.034,,170420,,,A*6E
51
$GPVTG,,T,,M,0.285,N,0.527,K,A*2C
$GPGGA,141116.00,4740.77165,N,00052.70605,W,1,09,1.19,13.1,M,47.2,M,,*78
$GPGSA,A,3,21,26,18,25,04,31,29,16,05,,,,2.06,1.19,1.68*06
$GPGSV,3,1,10,04,11,313,28,05,11,053,28,14,02,222,11,16,23,293,39*7D
$GPGSV,3,2,10,18,53,136,25,21,51,157,29,25,25,110,30,26,54,298,34*78
$GPGSV,3,3,10,29,54,055,29,31,58,224,18*7B
$GPGLL,4740.77165,N,00052.70605,W,141116.00,A,A*7F
$GPRMC,141117.00,A,4740.77156,N,00052.70617,W,0.214,,170420,,,A*63
52
$GPVTG,,T,,M,0.391,N,0.724,K,A*29
$GPGGA,141123.00,4740.77023,N,00052.70679,W,1,09,1.19,11.4,M,47.2,M,,*71
$GPGSA,A,3,21,26,18,25,04,31,29,16,05,,,,2.06,1.19,1.68*06
$GPGSV,3,1,10,04,11,313,29,05,11,053,31,14,02,222,20,16,23,293,41*79
$GPGSV,3,2,10,18,53,136,29,21,51,157,30,25,25,110,28,26,54,298,33*72
$GPGSV,3,3,10,29,54,055,31,31,58,224,25*7C
$GPGLL,4740.77023,N,00052.70679,W,141123.00,A,A*71
$GPRMC,141124.00,A,4740.76998,N,00052.70681,W,0.279,,170420,,,A*6C
53
$GPVTG,,T,,M,0.173,N,0.320,K,A*27
$GPGGA,141130.00,4740.76924,N,00052.70721,W,1,09,1.19,10.4,M,47.2,M,,*71
$GPGSA,A,3,21,26,18,25,04,31,29,16,05,,,,2.06,1.19,1.68*06
$GPGSV,3,1,10,04,11,313,32,05,11,053,30,14,02,222,20,16,23,293,41*72
$GPGSV,3,2,10,18,53,136,30,21,51,157,31,25,25,110,27,26,54,298,31*76
$GPGSV,3,3,10,29,54,055,31,31,58,224,21*78
$GPGLL,4740.76924,N,00052.70721,W,141130.00,A,A*70
$GPRMC,141131.00,A,4740.76903,N,00052.70744,W,0.150,,170420,,,A*6A
54
$GPVTG,,T,,M,0.126,N,0.234,K,A*23
$GPGGA,141137.00,4740.76935,N,00052.70779,W,1,09,1.19,10.8,M,47.2,M,,*77
$GPGSA,A,3,21,26,18,25,04,31,29,16,05,,,,2.06,1.19,1.68*06
$GPGSV,3,1,11,04,11,313,31,05,11,053,28,14,02,222,21,16,23,293,37*79
$GPGSV,3,2,11,18,53,136,28,21,51,157,28,25,25,110,28,26,54,298,33*7B
$GPGSV,3,3,11,27,02,245,,29,54,055,31,31,58,224,22*4E
$GPGLL,4740.76935,N,00052.70779,W,141137.00,A,A*7A
$GPRMC,141138.00,A,4740.76932,N,00052.70781,W,0.274,,170420,,,A*6D
55
$GPVTG,,T,,M,0.086,N,0.159,K,A*20
$GPGGA,141143.00,4740.77002,N,00052.70782,W,1,09,1.19,11.7,M,47.2,M,,*72
$GPGSA,A,3,21,26,18,25,04,31,29,16,05,,,,2.06,1.19,1.68*06
$GPGSV,3,1,11,04,11,313,30,05,11,053,24,14,02,222,21,16,23,293,38*7B
$GPGSV,3,2,11,18,53,136,24,21,51,157,26,25,25,110,27,26,54,298,32*77
$GPGSV,3,3,11,27,02,245,21,29,54,055,27,31,58,224,21*49
$GPGLL,4740.77002,N,00052.70782,W,141143.00,A,A*71
$GPRMC,141144.00,A,4740.77027,N,00052.70773,W,0.201,,170420,,,A*65
56
$GPVTG,,T,,M,0.139,N,0.257,K,A*28
$GPGGA,141149.00,4740.77274,N,00052.70719,W,1,09,1.19,13.8,M,47.2,M,,*74
$GPGSA,A,3,21,26,18,25,04,31,29,16,05,,,,2.06,1.19,1.68*06
$GPGSV,3,1,11,04,11,313,27,05,11,053,21,14,02,222,23,16,23,293,36*74
$GPGSV,3,2,11,18,53,136,23,21,51,157,36,25,25,110,29,26,54,298,28*74
$GPGSV,3,3,11,27,02,245,22,29,54,055,24,31,58,224,29*41
$GPGLL,4740.77274,N,00052.70719,W,141149.00,A,A*7A
$GPRMC,141150.00,A,4740.77323,N,00052.70690,W,0.843,,170420,,,A*67
57
$GPVTG,,T,,M,0.704,N,1.304,K,A*26
$GPGGA,141155.00,4740.77402,N,00052.70648,W,1,09,1.19,16.5,M,47.2,M,,*73
$GPGSA,A,3,21,26,18,25,04,31,29,16,05,,,,2.06,1.19,1.68*06
$GPGSV,3,1,11,04,11,313,27,05,11,053,19,14,01,221,22,16,23,293,36*7E
$GPGSV,3,2,11,18,53,136,31,21,51,157,38,25,25,110,22,26,54,298,31*7A
$GPGSV,3,3,11,27,02,245,22,29,54,055,22,31,58,224,33*4C
$GPGLL,4740.77402,N,00052.70648,W,141155.00,A,A*75
$GPRMC,141156.00,A,4740.77434,N,00052.70635,W,0.388,,170420,,,A*63
58
$GPVTG,339.15,T,,M,2.826,N,5.234,K,A*3E
$GPGGA,141201.00,4740.77649,N,00052.70707,W,1,09,1.19,19.5,M,47.2,M,,*79
$GPGSA,A,3,21,26,18,25,04,31,29,16,05,,,,2.05,1.19,1.68*05
$GPGSV,3,1,11,04,11,313,27,05,11,053,30,14,01,221,19,16,23,293,45*79
$GPGSV,3,2,11,18,54,136,36,21,52,156,39,25,25,110,29,26,54,298,45*71
$GPGSV,3,3,11,27,02,245,23,29,54,055,33,31,58,224,33*4D
$GPGLL,4740.77649,N,00052.70707,W,141201.00,A,A*70
$GPRMC,141202.00,A,4740.77707,N,00052.70853,W,4.122,287.22,170420,,,A*79
59
$GPVTG,246.72,T,,M,3.535,N,6.548,K,A*37
$GPGGA,141207.00,4740.77661,N,00052.71617,W,1,09,1.35,27.2,M,47.2,M,,*70
$GPGSA,A,3,21,26,18,25,04,31,29,16,05,,,,2.21,1.35,1.76*02
$GPGSV,3,1,11,04,11,313,27,05,11,053,24,14,01,221,,16,23,293,48*79
$GPGSV,3,2,11,18,54,136,42,21,52,156,47,25,25,110,26,26,54,298,47*76
$GPGSV,3,3,11,27,02,245,29,29,54,055,42,31,58,224,39*4B
$GPGLL,4740.77661,N,00052.71617,W,141207.00,A,A*7D
$GPRMC,141208.00,A,4740.77640,N,00052.71729,W,2.558,249.16,170420,,,A*78
60
$GPVTG,,T,,M,0.039,N,0.072,K,A*2C
$GPGGA,141213.00,4740.77650,N,00052.71773,W,1,09,1.35,28.9,M,47.2,M,,*70
$GPGSA,A,3,21,26,18,25,04,31,29,16,05,,,,2.21,1.35,1.76*02
$GPGSV,3,1,11,04,11,313,37,05,11,053,23,14,01,221,,16,23,293,48*7F
$GPGSV,3,2,11,18,54,136,43,21,52,156,47,25,25,110,21,26,54,298,47*70
$GPGSV,3,3,11,27,02,245,28,29,53,055,41,31,58,223,42*45
$GPGLL,4740.77650,N,00052.71773,W,141213.00,A,A*79
$GPRMC,141214.00,A,4740.77650,N,00052.71767,W,0.029,,170420,,,A*69
61
$GPVTG,,T,,M,0.022,N,0.041,K,A*26
$GPGGA,141219.00,4740.77651,N,00052.71754,W,1,08,1.55,29.3,M,47.2,M,,*72
$GPGSA,A,3,21,26,18,04,31,29,16,05,,,,,2.94,1.55,2.49*02
$GPGSV,3,1,11,04,11,313,36,05,11,053,28,14,01,221,,16,23,293,48*75
$GPGSV,3,2,11,18,54,136,42,21,52,156,46,25,25,110,,26,54,298,46*72
$GPGSV,3,3,11,27,02,245,29,29,53,055,41,31,58,223,41*47
$GPGLL,4740.77651,N,00052.71754,W,141219.00,A,A*77
$GPRMC,141220.00,A,4740.77651,N,00052.71753,W,0.033,,170420,,,A*63
62
$GPVTG,,T,,M,0.024,N,0.045,K,A*24
$GPGGA,141226.00,4740.77624,N,00052.71770,W,1,08,1.55,29.8,M,47.2,M,,*71
$GPGSA,A,3,21,26,18,04,31,29,16,05,,,,,2.94,1.55,2.49*02
$GPGSV,3,1,11,04,11,313,35,05,11,053,19,14,01,221,,16,23,293,47*7B
$GPGSV,3,2,11,18,54,136,41,21,52,156,45,25,25,110,,26,54,298,46*72
$GPGSV,3,3,11,27,02,245,26,29,53,055,42,31,58,223,39*44
$GPGLL,4740.77624,N,00052.71770,W,141226.00,A,A*7F
$GPRMC,141227.00,A,4740.77618,N,00052.71777,W,0.005,,170420,,,A*6A
63
$GPVTG,,T,,M,0.011,N,0.020,K,A*21
$GPGGA,141233.00,4740.77584,N,00052.71838,W,1,09,1.55,30.6,M,47.2,M,,*78
$GPGSA,A,3,21,26,18,25,04,31,29,16,05,,,,2.94,1.55,2.50*0D
$GPGSV,3,1,11,04,11,313,35,05,11,053,26,14,01,221,,16,23,293,46*76
$GPGSV,3,2,11,18,54,136,41,21,52,156,45,25,25,110,24,26,54,298,44*76
$GPGSV,3,3,11,27,02,245,32,29,53,055,42,31,58,223,42*4D
$GPGLL,4740.77584,N,00052.71838,W,141233.00,A,A*71
$GPRMC,141234.00,A,4740.77579,N,00052.71846,W,0.022,,170420,,,A*64
64
$GPVTG,,T,,M,0.012,N,0.023,K,A*21
$GPGGA,141239.00,4740.77550,N,00052.71867,W,1,07,1.55,30.4,M,47.2,M,,*7D
$GPGSA,A,3,21,26,18,04,31,29,16,,,,,,2.94,1.55,2.50*0F
$GPGSV,3,1,11,04,11,313,35,05,11,053,,14,01,221,,16,23,293,46*72
$GPGSV,3,2,11,18,54,136,40,21,52,156,45,25,25,110,,26,54,298,43*76
$GPGSV,3,3,11,27,02,245,31,29,53,055,42,31,58,223,43*4F
$GPGLL,4740.77550,N,00052.71867,W,141239.00,A,A*78
$GPRMC,141240.00,A,4740.77545,N,00052.71871,W,0.002,,170420,,,A*6E
65
$GPVTG,,T,,M,0.006,N,0.011,K,A*25
$GPGGA,141246.00,4740.77534,N,00052.71888,W,1,08,1.34,30.3,M,47.2,M,,*79
$GPGSA,A,3,21,26,18,04,31,29,16,05,,,,,2.38,1.34,1.96*02
$GPGSV,3,1,11,04,11,313,34,05,11,053,22,14,01,221,,16,23,293,46*73
$GPGSV,3,2,11,18,54,136,41,21,52,156,45,25,25,110,,26,54,298,45*71
$GPGSV,3,3,11,27,02,245,30,29,53,055,41,31,58,223,42*4C
$GPGLL,4740.77534,N,00052.71888,W,141246.00,A,A*73
$GPRMC,141247.00,A,4740.77535,N,00052.71888,W,0.059,,170420,,,A*66
66
$GPVTG,200.79,T,,M,4.931,N,9.133,K,A*36
$GPGGA,141253.00,4740.77290,N,00052.72276,W,1,09,1.35,30.1,M,47.2,M,,*7E
$GPGSA,A,3,21,26,18,25,04,31,29,16,05,,,,2.21,1.35,1.75*01
$GPGSV,3,1,11,04,11,313,29,05,11,053,32,14,01,221,,16,23,293,45*7D
$GPGSV,3,2,11,18,54,136,45,21,52,156,45,25,25,110,25,26,54,298,46*71
$GPGSV,3,3,11,27,02,245,26,29,53,055,44,31,58,223,43*4F
$GPGLL,4740.77290,N,00052.72276,W,141253.00,A,A*76
$GPRMC,141254.00,A,4740.77160,N,00052.72300,W,4.611,192.38,170420,,,A*79
67
$GPVTG,206.54,T,,M,7.297,N,13.515,K,A*00
$GPGGA,141259.00,4740.76560,N,00052.72423,W,1,09,1.38,30.2,M,47.2,M,,*75
$GPGSA,A,3,21,26,18,25,04,31,29,16,05,,,,2.53,1.38,2.12*0B
$GPGSV,3,1,11,04,11,312,22,05,11,052,24,14,01,221,20,16,23,293,41*77
$GPGSV,3,2,11,18,54,136,44,21,52,156,41,25,25,110,40,26,54,298,45*74
$GPGSV,3,3,11,27,02,245,32,29,53,055,41,31,58,223,42*4E
$GPGLL,4740.76560,N,00052.72423,W,141259.00,A,A*73
$GPRMC,141300.00,A,4740.76397,N,00052.72634,W,8.233,225.99,170420,,,A*7C
68
$GPVTG,312.84,T,,M,7.008,N,12.979,K,A*0A
$GPGGA,141305.00,4740.76538,N,00052.74108,W,1,09,1.19,29.7,M,47.2,M,,*74
$GPGSA,A,3,21,26,18,25,04,31,29,16,05,,,,2.05,1.19,1.67*0A
$GPGSV,3,1,11,04,11,312,30,05,11,052,32,14,01,221,08,16,23,293,36*79
$GPGSV,3,2,11,18,54,136,41,21,52,156,43,25,25,110,32,26,54,298,42*71
$GPGSV,3,3,11,27,02,245,26,29,53,055,41,31,58,223,46*4F
$GPGLL,4740.76538,N,00052.74108,W,141305.00,A,A*7C
$GPRMC,141306.00,A,4740.76672,N,00052.74238,W,5.266,325.90,170420,,,A*7F
69
$GPVTG,,T,,M,0.048,N,0.088,K,A*2F
$GPGGA,141311.00,4740.76808,N,00052.74311,W,1,08,1.58,28.8,M,47.2,M,,*7F
$GPGSA,A,3,21,26,18,25,04,31,29,16,,,,,3.86,1.58,3.52*04
$GPGSV,3,1,11,04,11,312,14,05,11,052,,14,01,221,08,16,24,294,28*71
$GPGSV,3,2,11,18,54,135,44,21,53,156,44,25,25,110,13,26,54,298,42*72
$GPGSV,3,3,11,27,02,245,36,29,53,055,48,31,58,223,46*47
$GPGLL,4740.76808,N,00052.74311,W,141311.00,A,A*7D
$GPRMC,141312.00,A,4740.76809,N,00052.74324,W,0.341,,170420,,,A*66
70
$GPVTG,,T,,M,0.476,N,0.882,K,A*24
$GPGGA,141317.00,4740.76856,N,00052.74394,W,1,07,1.58,11.7,M,47.2,M,,*75
$GPGSA,A,3,21,26,18,04,31,29,16,,,,,,3.87,1.58,3.53*03
$GPGSV,3,1,11,04,11,312,11,05,11,052,,14,01,221,,16,24,294,29*7D
$GPGSV,3,2,11,18,54,135,42,21,53,156,43,25,24,110,,26,55,298,39*7D
$GPGSV,3,3,11,27,02,246,33,29,53,055,47,31,58,223,45*4D
$GPGLL,4740.76856,N,00052.74394,W,141317.00,A,A*7D
$GPRMC,141318.00,A,4740.76866,N,00052.74392,W,0.165,,170420,,,A*6C
71
$GPVTG,334.64,T,,M,1.361,N,2.520,K,A*3B
$GPGGA,141324.00,4740.77126,N,00052.74472,W,1,08,1.35,16.0,M,47.2,M,,*71
$GPGSA,A,3,21,26,18,04,31,29,16,05,,,,,2.39,1.35,1.97*03
$GPGSV,3,1,11,04,11,312,27,05,11,052,41,14,01,221,,16,24,294,36*73
$GPGSV,3,2,11,18,54,135,44,21,53,156,42,25,24,110,,26,55,298,42*76
$GPGSV,3,3,11,27,02,246,32,29,53,055,48,31,57,222,45*4D
$GPGLL,4740.77126,N,00052.74472,W,141324.00,A,A*7D
$GPRMC,141325.00,A,4740.77138,N,00052.74472,W,0.087,,170420,,,A*65
72
$GPVTG,296.60,T,,M,8.333,N,15.432,K,A*0C
$GPGGA,141331.00,4740.77378,N,00052.74954,W,1,09,1.18,18.0,M,47.2,M,,*75
$GPGSA,A,3,21,26,18,25,04,31,29,16,05,,,,2.05,1.18,1.67*0B
$GPGSV,3,1,11,04,11,312,28,05,11,052,31,14,01,221,,16,24,294,20*7C
$GPGSV,3,2,11,18,54,135,42,21,53,156,40,25,24,110,25,26,55,298,41*76
$GPGSV,3,3,11,27,02,246,22,29,53,055,39,31,57,222,46*49
$GPGLL,4740.77378,N,00052.74954,W,141331.00,A,A*79
$GPRMC,141332.00,A,4740.77411,N,00052.75330,W,9.668,281.45,170420,,,A*77
73
$GPVTG,249.84,T,,M,19.216,N,35.589,K,A*31
$GPGGA,141338.00,4740.76573,N,00052.78934,W,1,09,1.35,19.3,M,47.2,M,,*77
$GPGSA,A,3,21,26,18,25,04,31,29,16,05,,,,2.20,1.35,1.74*01
$GPGSV,3,1,11,04,11,312,41,05,11,052,22,14,01,221,,16,24,294,43*74
$GPGSV,3,2,11,18,54,135,39,21,53,156,43,25,24,110,34,26,55,298,44*7C
$GPGSV,3,3,11,27,02,246,20,29,53,055,39,31,57,222,41*4C
$GPGLL,4740.76573,N,00052.78934,W,141338.00,A,A*76
$GPRMC,141339.00,A,4740.76388,N,00052.79691,W,19.470,249.94,170420,,,A*4A
74
$GPVTG,291.20,T,,M,14.160,N,26.224,K,A*37
$GPGGA,141345.00,4740.75818,N,00052.83722,W,1,08,1.35,22.6,M,47.2,M,,*7F
$GPGSA,A,3,21,26,18,25,04,31,29,16,,,,,2.20,1.35,1.74*04
$GPGSV,3,1,11,04,11,312,38,05,11,052,,14,01,221,,16,24,294,43*7A
$GPGSV,3,2,11,18,54,135,41,21,53,156,39,25,24,110,34,26,55,298,42*78
$GPGSV,3,3,11,27,02,246,,29,53,055,40,31,57,222,45*44
$GPGLL,4740.75818,N,00052.83722,W,141345.00,A,A*72
$GPRMC,141346.00,A,4740.76057,N,00052.84157,W,13.990,314.52,170420,,,A*46
75
$GPVTG,51.24,T,,M,17.984,N,33.307,K,A*08
$GPGGA,141351.00,4740.77765,N,00052.83240,W,1,09,1.18,24.2,M,47.2,M,,*70
$GPGSA,A,3,21,26,18,25,04,31,29,16,05,,,,2.04,1.18,1.67*0A
$GPGSV,3,1,11,04,11,312,27,05,11,052,38,14,01,221,,16,24,294,24*7E
$GPGSV,3,2,11,18,54,135,45,21,53,156,42,25,24,110,45,26,55,298,40*74
$GPGSV,3,3,11,27,02,246,,29,53,055,40,31,57,222,36*40
$GPGLL,4740.77765,N,00052.83240,W,141351.00,A,A*71
$GPRMC,141352.00,A,4740.78081,N,00052.82615,W,19.499,53.13,170420,,,A*7A
76
$GPVTG,34.87,T,,M,23.537,N,43.590,K,A*0E
$GPGGA,141357.00,4740.80193,N,00052.79470,W,1,07,1.38,26.0,M,47.2,M,,*7D
$GPGSA,A,3,21,26,18,25,31,29,16,,,,,,2.52,1.38,2.12*0B
$GPGSV,3,1,11,04,11,312,,05,11,052,,14,01,221,,16,24,294,41*73
$GPGSV,3,2,11,18,54,135,42,21,53,156,45,25,24,110,32,26,55,298,45*71
$GPGSV,3,3,11,27,02,246,,29,53,055,47,31,57,222,44*42
$GPGLL,4740.80193,N,00052.79470,W,141357.00,A,A*70
$GPRMC,141358.00,A,4740.80739,N,00052.78910,W,24.163,33.60,170420,,,A*70
77
$GPVTG,33.82,T,,M,24.463,N,45.306,K,A*04
$GPGGA,141403.00,4740.83559,N,00052.76031,W,1,09,1.18,30.5,M,47.2,M,,*7A
$GPGSA,A,3,21,26,18,25,04,31,29,16,05,,,,2.04,1.18,1.66*0B
$GPGSV,3,1,11,04,11,312,35,05,11,052,26,14,01,221,,16,24,294,41*71
$GPGSV,3,2,11,18,54,135,37,21,53,156,41,25,24,110,29,26,55,298,45*7D
$GPGSV,3,3,11,27,02,246,21,29,53,055,38,31,57,222,39*43
$GPGLL,4740.83559,N,00052.76031,W,141403.00,A,A*79
$GPRMC,141404.00,A,4740.84100,N,00052.75456,W,23.947,36.06,170420,,,A*78
78
$GPVTG,34.48,T,,M,23.236,N,43.032,K,A*06
$GPGGA,141409.00,4740.86741,N,00052.72685,W,1,09,1.23,34.5,M,47.2,M,,*7F
$GPGSA,A,3,21,26,18,25,04,31,29,16,05,,,,2.24,1.23,1.88*01
$GPGSV,3,1,11,04,11,312,22,05,11,052,33,14,01,221,,16,24,294,25*71
$GPGSV,3,2,11,18,54,135,42,21,53,156,43,25,24,110,43,26,55,298,46*72
$GPGSV,3,3,11,27,02,246,,29,53,055,48,31,57,222,44*4D
$GPGLL,4740.86741,N,00052.72685,W,141409.00,A,A*70
$GPRMC,141410.00,A,4740.87259,N,00052.72155,W,22.801,33.66,170420,,,A*71
79
$GPVTG,33.59,T,,M,21.972,N,40.692,K,A*07
$GPGGA,141415.00,4740.89874,N,00052.69551,W,1,08,1.23,38.1,M,47.2,M,,*7D
$GPGSA,A,3,21,26,18,25,31,29,16,05,,,,,2.24,1.23,1.88*05
$GPGSV,3,1,12,04,11,312,,05,11,052,31,09,02,342,,14,01,221,*77
$GPGSV,3,2,12,16,24,294,40,18,54,135,42,21,53,156,43,25,24,110,42*7F
$GPGSV,3,3,12,26,55,298,44,27,02,246,,29,53,055,47,31,57,222,42*70
$GPGLL,4740.89874,N,00052.69551,W,141415.00,A,A*7B
$GPRMC,141416.00,A,4740.90378,N,00052.69047,W,21.814,33.49,170420,,,A*71
80
$GPVTG,33.29,T,,M,20.538,N,38.036,K,A*04
$GPGGA,141421.00,4740.92791,N,00052.66611,W,1,07,1.38,40.8,M,47.2,M,,*7F
$GPGSA,A,3,21,26,18,25,31,29,16,,,,,,2.52,1.38,2.11*08
$GPGSV,3,1,12,04,11,312,,05,11,052,,09,02,342,,14,01,221,*75
$GPGSV,3,2,12,16,24,294,44,18,54,134,43,21,53,156,42,25,24,110,45*7D
$GPGSV,3,3,12,26,55,298,45,27,02,246,,29,53,055,49,31,57,222,43*7E
$GPGLL,4740.92791,N,00052.66611,W,141421.00,A,A*7A
$GPRMC,141422.00,A,4740.93253,N,00052.66146,W,20.013,34.22,170420,,,A*76
81
$GPVTG,36.92,T,,M,13.078,N,24.221,K,A*09
$GPGGA,141427.00,4740.95083,N,00052.64158,W,1,08,1.36,43.4,M,47.2,M,,*7C
$GPGSA,A,3,21,26,18,04,31,29,16,05,,,,,2.41,1.36,1.99*01
$GPGSV,3,1,12,04,11,312,35,05,11,052,37,09,02,342,16,14,01,221,*70
$GPGSV,3,2,12,16,24,294,41,18,54,134,36,21,53,155,44,25,24,111,*7F
$GPGSV,3,3,12,26,56,299,44,27,02,246,,29,53,055,45,31,57,222,44*76
$GPGLL,4740.95083,N,00052.64158,W,141427.00,A,A*77
$GPRMC,141428.00,A,4740.95363,N,00052.63887,W,11.691,31.56,170420,,,A*71
82
$GPVTG,292.17,T,,M,9.324,N,17.269,K,A*05
$GPGGA,141433.00,4740.96364,N,00052.64291,W,1,08,1.35,47.0,M,47.2,M,,*75
$GPGSA,A,3,21,26,18,25,04,31,29,16,,,,,2.19,1.35,1.73*09
$GPGSV,4,1,13,04,11,312,25,05,11,052,,09,02,342,19,12,,,26*4E
$GPGSV,4,2,13,14,01,221,,16,24,294,41,18,54,134,41,21,53,155,42*7A
$GPGSV,4,3,13,25,24,111,27,26,56,299,42,27,03,246,,29,52,056,40*77
$GPGSV,4,4,13,31,57,222,47*4A
$GPGLL,4740.96364,N,00052.64291,W,141433.00,A,A*7D
$GPRMC,141434.00,A,4740.96424,N,00052.64716,W,11.082,279.98,170420,,,A*43
83
$GPVTG,290.08,T,,M,20.849,N,38.612,K,A*37
$GPGGA,141439.00,4740.96996,N,00052.67981,W,1,09,1.35,47.8,M,47.2,M,,*78
$GPGSA,A,3,21,26,18,25,04,31,29,16,05,,,,2.19,1.35,1.73*0C
$GPGSV,3,1,12,04,11,312,31,05,11,052,26,09,02,342,23,14,01,221,*72
$GPGSV,3,2,12,16,24,294,42,18,54,134,38,21,53,155,38,25,24,111,31*7B
$GPGSV,3,3,12,26,56,299,40,27,03,246,,29,52,056,42,31,57,222,43*71
$GPGLL,4740.96996,N,00052.67981,W,141439.00,A,A*79
$GPRMC,141440.00,A,4740.97207,N,00052.68805,W,21.733,291.17,170420,,,A*48
84
$GPVTG,299.36,T,,M,22.766,N,42.163,K,A*3F
$GPGGA,141445.00,4740.98533,N,00052.72923,W,1,09,1.35,47.9,M,47.2,M,,*73
$GPGSA,A,3,21,26,18,25,04,31,29,16,05,,,,2.19,1.35,1.73*0C
$GPGSV,3,1,12,04,11,312,35,05,11,052,24,09,02,342,24,14,01,221,*73
$GPGSV,3,2,12,16,24,294,36,18,54,134,42,21,53,155,42,25,24,111,29*71
$GPGSV,3,3,12,26,56,299,44,27,03,246,23,29,52,056,41,31,57,222,46*72
$GPGLL,4740.98533,N,00052.72923,W,141445.00,A,A*73
$GPRMC,141446.00,A,4740.98861,N,00052.73740,W,23.351,301.29,170420,,,A*48
85
$GPVTG,307.31,T,,M,24.184,N,44.789,K,A*36
$GPGGA,141451.00,4741.00833,N,00052.77679,W,1,09,1.35,48.0,M,47.2,M,,*78
$GPGSA,A,3,21,26,18,25,04,31,29,16,05,,,,2.19,1.35,1.73*0C
$GPGSV,4,1,13,04,11,312,39,05,11,052,26,09,02,342,20,14,01,221,*7F
$GPGSV,4,2,13,16,24,294,32,18,54,134,42,21,53,155,43,23,,,25*4F
$GPGSV,4,3,13,25,24,111,28,26,56,299,43,27,03,246,,29,52,056,38*76
$GPGSV,4,4,13,31,57,222,45*48
$GPGLL,4741.00833,N,00052.77679,W,141451.00,A,A*7E
$GPRMC,141452.00,A,4741.01246,N,00052.78471,W,24.308,307.30,170420,,,A*4C
86
$GPVTG,307.67,T,,M,24.603,N,45.565,K,A*3C
$GPGGA,141457.00,4741.03337,N,00052.82455,W,1,09,1.34,49.0,M,47.2,M,,*74
$GPGSA,A,3,21,26,18,25,04,31,29,16,05,,,,2.19,1.34,1.73*0D
$GPGSV,4,1,13,04,11,312,34,05,11,052,24,09,02,342,08,14,01,221,*7A
$GPGSV,4,2,13,16,24,294,36,18,54,134,42,21,53,155,43,23,,,22*4C
$GPGSV,4,3,13,25,24,111,28,26,56,299,41,27,03,246,,29,52,056,31*7D
$GPGSV,4,4,13,31,57,222,45*48
$GPGLL,4741.03337,N,00052.82455,W,141457.00,A,A*72
$GPRMC,141458.00,A,4741.03761,N,00052.83254,W,24.685,307.91,170420,,,A*4A
87
$GPVTG,309.10,T,,M,25.776,N,47.736,K,A*36
$GPGGA,141503.00,4741.05944,N,00052.87331,W,1,08,1.34,49.9,M,47.2,M,,*74
$GPGSA,A,3,21,26,18,25,04,31,29,16,,,,,2.19,1.34,1.73*08
$GPGSV,4,1,13,04,11,312,37,05,11,052,,09,02,342,09,14,01,221,*7E
$GPGSV,4,2,13,16,24,294,34,18,54,134,41,21,53,155,42,23,,,37*48
$GPGSV,4,3,13,25,24,111,24,26,56,299,40,27,03,246,,29,52,056,39*78
$GPGSV,4,4,13,31,57,222,44*49
$GPGLL,4741.05944,N,00052.87331,W,141503.00,A,A*7A
$GPRMC,141504.00,A,4741.06406,N,00052.88144,W,25.818,309.75,170420,,,A*43
88
$GPVTG,307.79,T,,M,26.773,N,49.584,K,A*34
$GPGGA,141509.00,4741.08695,N,00052.92362,W,1,09,1.18,50.7,M,47.2,M,,*7B
$GPGSA,A,3,21,26,18,25,04,31,29,16,05,,,,2.03,1.18,1.66*0C
$GPGSV,4,1,13,04,11,312,35,05,11,052,31,09,02,342,25,14,01,221,24*76
$GPGSV,4,2,13,16,24,294,33,18,54,134,41,21,53,155,41,23,,,35*4E
$GPGSV,4,3,13,25,24,111,26,26,56,299,41,27,03,246,,29,52,056,40*75
$GPGSV,4,4,13,31,57,222,45*48
$GPGLL,4741.08695,N,00052.92362,W,141509.00,A,A*7C
$GPRMC,141510.00,A,4741.09151,N,00052.93228,W,26.702,307.74,170420,,,A*45
89
$GPVTG,306.83,T,,M,26.446,N,48.979,K,A*3A
$GPGGA,141515.00,4741.11381,N,00052.97566,W,1,09,1.18,51.0,M,47.2,M,,*7F
$GPGSA,A,3,21,26,18,25,04,31,29,16,05,,,,2.03,1.18,1.66*0C
$GPGSV,4,1,13,04,11,312,33,05,11,052,28,09,02,342,25,14,01,221,26*7A
$GPGSV,4,2,13,16,24,294,33,18,54,134,41,21,53,155,41,23,,,31*4A
$GPGSV,4,3,13,25,24,111,28,26,56,299,43,27,03,246,31,29,52,056,39*75
$GPGSV,4,4,13,31,57,222,44*49
$GPGLL,4741.11381,N,00052.97566,W,141515.00,A,A*7E
$GPRMC,141516.00,A,4741.11823,N,00052.98440,W,26.588,306.81,170420,,,A*4E
90
$GPVTG,309.63,T,,M,23.974,N,44.399,K,A*3A
$GPGGA,141521.00,4741.14056,N,00053.02573,W,1,09,1.18,51.7,M,47.2,M,,*7A
$GPGSA,A,3,21,26,18,25,04,31,29,16,05,,,,2.03,1.18,1.65*0F
$GPGSV,4,1,13,04,11,311,36,05,11,051,24,09,02,341,12,14,01,221,25*77
$GPGSV,4,2,13,16,24,294,36,18,54,134,40,21,53,155,39,23,,,22*43
$GPGSV,4,3,13,25,24,111,25,26,56,299,40,27,03,246,29,29,52,056,39*72
$GPGSV,4,4,13,31,57,222,42*4F
$GPGLL,4741.14056,N,00053.02573,W,141521.00,A,A*7C
$GPRMC,141522.00,A,4741.14462,N,00053.03315,W,22.984,308.83,170420,,,A*49
91
$GPVTG,281.04,T,,M,18.214,N,33.733,K,A*3B
$GPGGA,141527.00,4741.15595,N,00053.07081,W,1,08,1.34,52.1,M,47.2,M,,*70
$GPGSA,A,3,21,26,18,25,04,31,29,16,,,,,2.19,1.34,1.72*09
$GPGSV,4,1,13,04,11,311,35,05,11,051,,09,02,341,,14,00,220,14*73
$GPGSV,4,2,13,16,24,294,43,18,54,134,38,21,53,155,39,23,,,37*4A
$GPGSV,4,3,13,25,24,111,32,26,56,299,41,27,03,246,32,29,52,056,42*73
$GPGSV,4,4,13,31,57,222,43*4E
$GPGLL,4741.15595,N,00053.07081,W,141527.00,A,A*7C
$GPRMC,141528.00,A,4741.15704,N,00053.07790,W,17.482,284.10,170420,,,A*4E
92
$GPVTG,330.70,T,,M,20.653,N,38.250,K,A*34
$GPGGA,141533.00,4741.17522,N,00053.10171,W,1,09,1.18,52.7,M,47.2,M,,*7A
$GPGSA,A,3,21,26,18,25,04,31,29,16,05,,,,2.03,1.18,1.65*0F
$GPGSV,4,1,13,04,11,311,34,05,11,051,37,09,02,341,,14,00,220,18*7A
$GPGSV,4,2,13,16,24,294,32,18,55,134,40,21,54,155,42,23,,,27*48
$GPGSV,4,3,13,25,24,111,25,26,56,299,41,27,03,246,38,29,52,056,45*78
$GPGSV,4,4,13,31,57,222,42*4F
$GPGLL,4741.17522,N,00053.10171,W,141533.00,A,A*7F
$GPRMC,141534.00,A,4741.17991,N,00053.10694,W,21.288,319.72,170420,,,A*48
93
$GPVTG,306.93,T,,M,23.218,N,42.999,K,A*37
$GPGGA,141539.00,4741.19904,N,00053.14225,W,1,09,1.18,53.2,M,47.2,M,,*74
$GPGSA,A,3,21,26,18,25,04,31,29,16,05,,,,2.03,1.18,1.65*0F
$GPGSV,4,1,13,04,11,311,37,05,11,051,31,09,02,341,17,14,00,220,21*73
$GPGSV,4,2,13,16,24,294,35,18,55,134,42,21,54,155,43,23,,,37*4D
$GPGSV,4,3,13,25,23,111,29,26,56,299,42,27,03,246,28,29,52,056,39*7A
$GPGSV,4,4,13,31,57,222,45*48
$GPGLL,4741.19904,N,00053.14225,W,141539.00,A,A*75
$GPRMC,141540.00,A,4741.20295,N,00053.15000,W,23.665,306.79,170420,,,A*4E
94
$GPVTG,307.32,T,,M,24.424,N,45.233,K,A*3F
$GPGGA,141545.00,4741.22373,N,00053.18994,W,1,08,1.34,51.6,M,47.2,M,,*79
$GPGSA,A,3,21,26,18,25,04,31,29,16,,,,,2.18,1.34,1.72*08
$GPGSV,4,1,13,04,11,311,38,05,11,051,,09,02,341,23,14,00,220,26*7E
$GPGSV,4,2,13,16,24,294,32,18,55,134,41,21,54,155,42,23,,,28*46
$GPGSV,4,3,13,25,23,111,26,26,56,299,41,27,03,246,33,29,52,056,38*7D
$GPGSV,4,4,13,31,57,221,44*4A
$GPGLL,4741.22373,N,00053.18994,W,141545.00,A,A*71
$GPRMC,141546.00,A,4741.22775,N,00053.19786,W,24.044,307.11,170420,,,A*49
95
$GPVTG,307.90,T,,M,24.858,N,46.036,K,A*34
$GPGGA,141551.00,4741.24750,N,00053.23747,W,1,08,1.34,49.7,M,47.2,M,,*7F
$GPGSA,A,3,21,26,18,25,04,31,29,16,,,,,2.18,1.34,1.72*08
$GPGSV,4,1,13,04,11,311,39,05,11,051,,09,02,341,28,14,00,220,15*74
$GPGSV,4,2,13,16,24,294,37,18,55,134,43,21,54,155,43,23,,,38*41
$GPGSV,4,3,13,25,23,111,25,26,56,299,42,27,03,246,23,29,52,056,40*73
$GPGSV,4,4,13,31,57,221,45*4B
$GPGLL,4741.24750,N,00053.23747,W,141551.00,A,A*7F
$GPRMC,141552.00,A,4741.25188,N,00053.24552,W,25.315,309.22,170420,,,A*42
96
$GPVTG,307.26,T,,M,27.250,N,50.467,K,A*3F
$GPGGA,141557.00,4741.27435,N,00053.28832,W,1,09,1.18,48.5,M,47.2,M,,*70
$GPGSA,A,3,21,26,18,25,04,31,29,16,05,,,,2.03,1.18,1.65*0F
$GPGSV,4,1,13,04,11,311,36,05,11,051,28,09,02,341,26,14,00,220,*7B
$GPGSV,4,2,13,16,24,294,33,18,55,134,42,21,54,155,43,23,,,36*4A
$GPGSV,4,3,13,25,23,111,27,26,56,299,43,27,03,246,,29,52,056,41*70
$GPGSV,4,4,13,31,57,221,45*4B
$GPGLL,4741.27435,N,00053.28832,W,141557.00,A,A*7C
$GPRMC,141558.00,A,4741.27894,N,00053.29727,W,27.472,307.37,170420,,,A*4D
97
$GPVTG,307.68,T,,M,27.096,N,50.182,K,A*33
$GPGGA,141603.00,4741.30216,N,00053.34206,W,1,09,1.18,47.2,M,47.2,M,,*7B
$GPGSA,A,3,21,26,18,25,04,31,29,16,05,,,,2.02,1.18,1.65*0E
$GPGSV,4,1,13,04,11,311,36,05,11,051,33,09,02,341,29,14,00,220,*7E
$GPGSV,4,2,13,16,24,294,33,18,55,134,42,21,54,155,42,23,,,33*4E
$GPGSV,4,3,13,25,23,111,28,26,56,299,43,27,03,246,25,29,52,056,40*79
$GPGSV,4,4,13,31,57,221,46*48
$GPGLL,4741.30216,N,00053.34206,W,141603.00,A,A*7F
$GPRMC,141604.00,A,4741.30673,N,00053.35079,W,26.799,307.62,170420,,,A*40
98
$GPVTG,308.82,T,,M,24.828,N,45.982,K,A*3A
$GPGGA,141609.00,4741.32821,N,00053.39243,W,1,09,1.18,47.3,M,47.2,M,,*70
$GPGSA,A,3,21,26,18,25,04,31,29,16,05,,,,2.02,1.18,1.65*0E
$GPGSV,4,1,13,04,11,311,38,05,11,051,30,09,02,341,24,14,00,220,*7E
$GPGSV,4,2,13,16,24,294,36,18,55,134,42,21,54,155,43,23,,,33*4A
$GPGSV,4,3,13,25,23,111,27,26,56,299,42,27,03,246,23,29,52,056,40*71
$GPGSV,4,4,13,31,57,221,44*4A
$GPGLL,4741.32821,N,00053.39243,W,141609.00,A,A*75
$GPRMC,141610.00,A,4741.33253,N,00053.40031,W,24.576,308.99,170420,,,A*44
99
$GPVTG,305.91,T,,M,21.928,N,40.611,K,A*31
$GPGGA,141615.00,4741.35302,N,00053.43793,W,1,08,1.34,47.5,M,47.2,M,,*7C
$GPGSA,A,3,21,26,18,25,04,31,29,16,,,,,2.18,1.34,1.71*0B
$GPGSV,4,1,13,04,11,311,35,05,11,051,,09,02,341,,14,00,220,*76
$GPGSV,4,2,13,16,24,294,33,18,55,134,42,21,54,155,42,23,,,24*48
$GPGSV,4,3,13,25,23,111,26,26,56,299,44,27,03,246,29,29,52,056,39*72
$GPGSV,4,4,13,31,57,221,46*48
$GPGLL,4741.35302,N,00053.43793,W,141615.00,A,A*70
$GPRMC,141616.00,A,4741.35621,N,00053.44507,W,20.489,302.84,170420,,,A*42
100
$GPVTG,303.22,T,,M,18.951,N,35.096,K,A*30
$GPGGA,141621.00,4741.37077,N,00053.47815,W,1,09,1.17,46.3,M,47.2,M,,*7A
$GPGSA,A,3,21,26,18,25,04,31,29,16,05,,,,2.02,1.17,1.65*01
$GPGSV,4,1,13,04,11,311,38,05,11,051,32,09,02,341,22,14,00,220,*7A
$GPGSV,4,2,13,16,24,294,26,18,55,134,42,21,54,155,43,23,,,22*4B
$GPGSV,4,3,13,25,23,111,27,26,56,299,46,27,03,246,23,29,52,056,39*7B
$GPGSV,4,4,13,31,57,221,46*48
$GPGLL,4741.37077,N,00053.47815,W,141621.00,A,A*71
$GPRMC,141622.00,A,4741.37399,N,00053.48456,W,19.646,308.34,170420,,,A*42
101
$GPVTG,309.08,T,,M,21.958,N,40.667,K,A*3B
$GPGGA,141627.00,4741.39303,N,00053.51688,W,1,09,1.37,46.8,M,47.2,M,,*76
$GPGSA,A,3,21,26,18,25,04,31,29,16,05,,,,2.44,1.37,2.02*03
$GPGSV,4,1,13,04,11,311,39,05,11,051,26,09,02,341,31,14,00,220,*7C
$GPGSV,4,2,13,16,24,294,36,18,55,134,43,21,54,155,44,23,,,37*48
$GPGSV,4,3,13,25,23,111,25,26,56,299,44,27,03,246,25,29,52,056,31*75
$GPGSV,4,4,13,31,57,221,46*48
$GPGLL,4741.39303,N,00053.51688,W,141627.00,A,A*74
$GPRMC,141628.00,A,4741.39696,N,00053.52378,W,22.300,311.35,170420,,,A*4A
102
$GPVTG,319.89,T,,M,22.850,N,42.318,K,A*36
$GPGGA,141633.00,4741.41714,N,00053.55961,W,1,09,1.34,44.7,M,47.2,M,,*7C
$GPGSA,A,3,21,26,18,25,04,31,29,16,05,,,,2.17,1.34,1.71*01
$GPGSV,4,1,13,04,11,311,29,05,11,051,37,09,02,341,33,14,00,220,*7F
$GPGSV,4,2,13,16,24,294,38,18,55,134,37,21,54,155,41,23,,,39*4E
$GPGSV,4,3,13,25,23,111,34,26,56,299,42,27,03,246,,29,52,056,44*76
$GPGSV,4,4,13,31,57,221,43*4D
$GPGLL,4741.41714,N,00053.55961,W,141633.00,A,A*70
$GPRMC,141634.00,A,4741.42235,N,00053.56513,W,23.177,326.95,170420,,,A*44
103
$GPVTG,347.97,T,,M,23.492,N,43.507,K,A*38
$GPGGA,141639.00,4741.45286,N,00053.58025,W,1,09,1.17,42.3,M,47.2,M,,*7B
$GPGSA,A,3,21,26,18,25,04,31,29,16,05,,,,2.02,1.17,1.64*00
$GPGSV,4,1,13,04,11,311,31,05,11,051,39,09,02,341,32,14,00,220,*79
$GPGSV,4,2,13,16,25,294,44,18,55,134,43,21,54,155,39,23,,,30*41
$GPGSV,4,3,13,25,23,111,27,26,56,299,45,27,03,246,,29,52,056,47*70
$GPGSV,4,4,13,31,57,221,39*40
$GPGLL,4741.45286,N,00053.58025,W,141639.00,A,A*74
$GPRMC,141640.00,A,4741.45926,N,00053.58226,W,23.641,348.41,170420,,,A*45
104
$GPVTG,348.26,T,,M,23.833,N,44.139,K,A*34
$GPGGA,141645.00,4741.49151,N,00053.59233,W,1,09,1.17,38.9,M,47.2,M,,*76
$GPGSA,A,3,21,26,18,25,04,31,29,16,05,,,,2.02,1.17,1.64*00
$GPGSV,4,1,13,04,11,311,28,05,11,051,21,09,02,341,24,14,00,220,*7F
$GPGSV,4,2,13,16,25,294,43,18,55,133,42,21,54,154,39,23,,,31*40
$GPGSV,4,3,13,25,23,111,26,26,56,299,45,27,03,246,,29,52,056,42*74
$GPGSV,4,4,13,31,57,221,36*4F
$GPGLL,4741.49151,N,00053.59233,W,141645.00,A,A*7E
$GPRMC,141646.00,A,4741.49800,N,00053.59434,W,23.950,348.26,170420,,,A*40
105
$GPVTG,19.84,T,,M,19.070,N,35.317,K,A*05
$GPGGA,141651.00,4741.52652,N,00053.59596,W,1,09,1.17,36.1,M,47.2,M,,*73
$GPGSA,A,3,21,26,18,25,04,31,29,16,05,,,,2.02,1.17,1.64*00
$GPGSV,4,1,13,04,11,311,25,05,11,051,40,09,02,341,16,14,00,220,*74
$GPGSV,4,2,13,16,25,294,27,18,55,133,41,21,54,154,45,23,,,31*4A
$GPGSV,4,3,13,25,23,111,38,26,57,299,46,27,03,246,,29,52,056,45*7E
$GPGSV,4,4,13,31,57,221,41*4F
$GPGLL,4741.52652,N,00053.59596,W,141651.00,A,A*7D
$GPRMC,141652.00,A,4741.53144,N,00053.59326,W,18.728,20.78,170420,,,A*7C
106
$GPVTG,301.09,T,,M,18.322,N,33.932,K,A*34
$GPGGA,141657.00,4741.55300,N,00053.60506,W,1,08,1.34,35.5,M,47.2,M,,*74
$GPGSA,A,3,21,26,18,25,04,31,29,16,,,,,2.17,1.34,1.71*04
$GPGSV,4,1,13,04,11,311,39,05,11,051,,09,02,341,07,14,00,220,*7D
$GPGSV,4,2,13,16,25,294,27,18,55,133,40,21,54,154,41,23,,,27*48
$GPGSV,4,3,13,25,23,111,33,26,57,299,46,27,03,246,,29,51,056,32*76
$GPGSV,4,4,13,31,56,220,47*49
$GPGLL,4741.55300,N,00053.60506,W,141657.00,A,A*7D
$GPRMC,141658.00,A,4741.55541,N,00053.61169,W,18.230,296.81,170420,,,A*46
107
$GPVTG,339.02,T,,M,21.245,N,39.346,K,A*3D
$GPGGA,141703.00,4741.57816,N,00053.63276,W,1,08,1.37,34.6,M,47.2,M,,*78
$GPGSA,A,3,21,26,18,25,31,29,16,05,,,,,2.51,1.37,2.10*00
$GPGSV,4,1,13,04,11,311,,05,11,051,15,09,02,341,,14,00,220,*74
$GPGSV,4,2,13,16,25,294,21,18,55,133,21,21,54,154,25,23,,,30*4D
$GPGSV,4,3,13,25,23,111,22,26,57,299,21,27,03,246,12,29,51,056,20*77
$GPGSV,4,4,13,31,56,220,22*4A
$GPGLL,4741.57816,N,00053.63276,W,141703.00,A,A*70
$GPRMC,141704.00,A,4741.58098,N,00053.63619,W,15.393,335.19,170420,,,A*4C
108
$GPVTG,18.87,T,,M,16.739,N,31.001,K,A*02
$GPGGA,141709.00,4741.60745,N,00053.63643,W,1,09,1.17,18.7,M,47.2,M,,*71
$GPGSA,A,3,21,26,18,25,04,31,29,16,05,,,,2.01,1.17,1.64*03
$GPGSV,4,1,13,04,11,311,27,05,11,051,37,09,02,341,,14,00,220,*71
$GPGSV,4,2,13,16,25,294,31,18,55,133,41,21,54,154,45,23,,,22*4F
$GPGSV,4,3,13,25,23,111,39,26,57,299,46,27,03,246,08,29,51,056,44*75
$GPGSV,4,4,13,31,56,220,41*4F
$GPGLL,4741.60745,N,00053.63643,W,141709.00,A,A*75
$GPRMC,141710.00,A,4741.61152,N,00053.63552,W,16.184,1.34,170420,,,A*44
109
$GPVTG,265.79,T,,M,15.175,N,28.105,K,A*3B
$GPGGA,141715.00,4741.62328,N,00053.65601,W,1,09,1.17,27.3,M,47.2,M,,*79
$GPGSA,A,3,21,26,18,25,04,31,29,16,05,,,,2.01,1.17,1.64*03
$GPGSV,4,1,13,04,11,311,33,05,11,051,27,09,02,341,,14,00,220,*75
$GPGSV,4,2,13,16,25,294,45,18,55,133,38,21,54,154,40,23,,,21*44
$GPGSV,4,3,13,25,23,111,33,26,57,299,44,27,03,246,22,29,51,056,44*75
$GPGSV,4,4,13,31,56,220,42*4C
$GPGLL,4741.62328,N,00053.65601,W,141715.00,A,A*75
$GPRMC,141716.00,A,4741.62183,N,00053.66200,W,15.841,243.92,170420,,,A*43
110
$GPVTG,208.84,T,,M,19.165,N,35.493,K,A*39
$GPGGA,141721.00,4741.60108,N,00053.67559,W,1,09,1.17,30.4,M,47.2,M,,*71
$GPGSA,A,3,21,26,18,25,04,31,29,16,05,,,,2.01,1.17,1.64*03
$GPGSV,4,1,13,04,11,311,21,05,11,051,26,09,02,341,,14,00,220,*77
$GPGSV,4,2,13,16,25,294,37,18,55,133,45,21,54,154,43,23,,,17*4D
$GPGSV,4,3,13,25,23,111,41,26,57,299,43,27,03,246,,29,51,056,43*70
$GPGSV,4,4,13,31,56,220,44*4A
$GPGLL,4741.60108,N,00053.67559,W,141721.00,A,A*7C
$GPRMC,141722.00,A,4741.59684,N,00053.68105,W,21.073,224.98,170420,,,A*41
111
$GPVTG,245.17,T,,M,30.062,N,55.674,K,A*3A
$GPGGA,141727.00,4741.57880,N,00053.72733,W,1,09,1.38,34.6,M,47.2,M,,*7B
$GPGSA,A,3,21,26,18,25,04,31,29,16,05,,,,2.45,1.38,2.03*0C
$GPGSV,3,1,12,04,11,311,26,05,11,051,28,09,02,341,,14,00,220,*78
$GPGSV,3,2,12,16,25,294,43,18,55,133,42,21,54,154,44,25,23,111,22*78
$GPGSV,3,3,12,26,57,299,46,27,03,246,35,29,51,056,36,31,56,220,41*71
$GPGLL,4741.57880,N,00053.72733,W,141727.00,A,A*7D
$GPRMC,141728.00,A,4741.57557,N,00053.73952,W,32.600,249.32,170420,,,A*43
112
$GPVTG,267.06,T,,M,41.506,N,76.869,K,A*38
$GPGGA,141733.00,4741.56558,N,00053.81601,W,1,09,1.17,39.4,M,47.2,M,,*79
$GPGSA,A,3,21,26,18,25,04,31,29,16,05,,,,2.01,1.17,1.63*04
$GPGSV,3,1,12,04,11,311,34,05,11,051,23,09,02,341,,14,00,220,*70
$GPGSV,3,2,12,16,25,294,45,18,55,133,38,21,54,154,39,25,23,111,31*7B
$GPGSV,3,3,12,26,57,299,44,27,03,246,17,29,51,056,44,31,56,220,42*75
$GPGLL,4741.56558,N,00053.81601,W,141733.00,A,A*7D
$GPRMC,141734.00,A,4741.56556,N,00053.83372,W,43.847,271.08,170420,,,A*40
113
$GPVTG,284.76,T,,M,52.198,N,96.670,K,A*3B
$GPGGA,141739.00,4741.57652,N,00053.93250,W,1,09,1.17,41.8,M,47.2,M,,*7B
$GPGSA,A,3,21,26,18,25,04,31,29,16,05,,,,2.01,1.17,1.63*04
$GPGSV,3,1,12,04,11,310,38,05,11,050,20,09,02,341,,14,00,220,*7F
$GPGSV,3,2,12,16,25,294,43,18,55,133,41,21,54,154,39,25,23,111,34*76
$GPGSV,3,3,12,26,57,299,45,27,03,246,29,29,51,056,43,31,56,220,46*7A
$GPGLL,4741.57652,N,00053.93250,W,141739.00,A,A*7C
$GPRMC,141740.00,A,4741.58076,N,00053.95356,W,54.040,287.49,170420,,,A*4E
114
$GPVTG,296.52,T,,M,62.692,N,116.106,K,A*0F
$GPGGA,141745.00,4741.61439,N,00054.06444,W,1,09,1.17,42.1,M,47.2,M,,*78
$GPGSA,A,3,21,26,18,25,04,31,29,16,05,,,,2.01,1.17,1.63*04
$GPGSV,3,1,12,04,11,310,40,05,11,050,23,09,02,341,20,14,00,220,*71
$GPGSV,3,2,12,16,25,294,39,18,55,133,43,21,54,154,39,25,23,111,37*7A
$GPGSV,3,3,12,26,57,299,46,27,03,246,35,29,51,056,37,31,56,220,46*77
$GPGLL,4741.61439,N,00054.06444,W,141745.00,A,A*75
$GPRMC,141746.00,A,4741.62194,N,00054.08746,W,62.130,295.72,170420,,,A*42
115
$GPVTG,291.83,T,,M,67.594,N,125.184,K,A*0E
$GPGGA,141751.00,4741.65781,N,00054.20993,W,1,09,1.17,40.5,M,47.2,M,,*7C
$GPGSA,A,3,21,26,18,25,04,31,29,16,05,,,,2.01,1.17,1.63*04
$GPGSV,3,1,12,04,11,310,41,05,11,050,31,09,02,341,,16,25,295,44*7A
$GPGSV,3,2,12,18,55,133,42,21,54,154,41,23,,,36,25,23,111,38*4A
$GPGSV,3,3,12,26,57,299,44,27,03,246,31,29,51,056,40,31,56,220,46*71
$GPGLL,4741.65781,N,00054.20993,W,141751.00,A,A*77
$GPRMC,141752.00,A,4741.66466,N,00054.23604,W,68.323,291.17,170420,,,A*48
116
$GPVTG,286.96,T,,M,71.412,N,132.256,K,A*0E
$GPGGA,141757.00,4741.69604,N,00054.37216,W,1,08,1.34,39.6,M,47.2,M,,*77
$GPGSA,A,3,21,26,18,25,04,31,29,16,,,,,2.16,1.34,1.69*0C
$GPGSV,3,1,12,04,11,310,37,05,11,050,,09,02,341,,16,25,295,45*78
$GPGSV,3,2,12,18,56,132,41,21,55,154,40,23,,,30,25,23,111,37*42
$GPGSV,3,3,12,26,57,299,44,27,03,246,24,29,51,056,43,31,56,220,44*74
$GPGLL,4741.69604,N,00054.37216,W,141757.00,A,A*71
$GPRMC,141758.00,A,4741.70163,N,00054.40041,W,71.719,286.20,170420,,,A*40
117
$GPVTG,285.41,T,,M,71.996,N,133.336,K,A*00
$GPGGA,141803.00,4741.72787,N,00054.54314,W,1,09,1.17,40.2,M,47.3,M,,*74
$GPGSA,A,3,21,26,18,25,04,31,29,16,05,,,,2.00,1.17,1.63*05
$GPGSV,3,1,12,04,11,310,40,05,11,050,28,09,02,341,30,16,25,295,45*71
$GPGSV,3,2,12,18,56,132,41,21,55,154,40,23,,,33,25,23,112,36*43
$GPGSV,3,3,12,26,57,299,45,27,04,247,22,29,51,056,43,31,56,220,45*74
$GPGLL,4741.72787,N,00054.54314,W,141803.00,A,A*79
$GPRMC,141804.00,A,4741.73312,N,00054.57164,W,71.911,285.33,170420,,,A*46
118
$GPVTG,284.22,T,,M,71.484,N,132.388,K,A*0E
$GPGGA,141809.00,4741.75878,N,00054.71397,W,1,09,1.17,42.2,M,47.3,M,,*78
$GPGSA,A,3,21,26,18,25,04,31,29,16,05,,,,2.00,1.17,1.63*05
$GPGSV,3,1,12,04,11,310,36,05,11,050,29,09,02,341,,16,25,295,45*72
$GPGSV,3,2,12,18,56,132,42,21,55,154,39,23,,,33,25,23,112,35*4D
$GPGSV,3,3,12,26,57,299,44,27,04,247,32,29,51,056,43,31,56,219,45*7E
$GPGLL,4741.75878,N,00054.71397,W,141809.00,A,A*77
$GPRMC,141810.00,A,4741.76363,N,00054.74244,W,71.455,284.17,170420,,,A*4A
119
$GPVTG,285.14,T,,M,70.852,N,131.218,K,A*07
$GPGGA,141815.00,4741.78893,N,00054.88380,W,1,09,1.34,46.4,M,47.3,M,,*7E
$GPGSA,A,3,21,26,18,25,04,31,29,16,05,,,,2.15,1.34,1.69*0A
$GPGSV,3,1,12,04,11,310,37,05,11,050,22,09,02,341,,16,25,295,44*79
$GPGSV,3,2,12,18,56,132,43,21,55,154,39,23,,,43,25,23,112,36*48
$GPGSV,3,3,12,26,57,299,45,27,04,247,31,29,51,056,45,31,56,219,45*7A
$GPGLL,4741.78893,N,00054.88380,W,141815.00,A,A*72
$GPRMC,141816.00,A,4741.79407,N,00054.91192,W,70.837,285.21,170420,,,A*48
120
$GPVTG,284.82,T,,M,70.905,N,131.317,K,A*04
$GPGGA,141821.00,4741.81970,N,00055.05224,W,1,09,1.17,51.8,M,47.3,M,,*73
$GPGSA,A,3,21,26,18,25,04,31,29,16,05,,,,2.00,1.17,1.62*04
$GPGSV,3,1,12,04,11,310,38,05,11,050,30,09,02,341,,16,25,295,44*75
$GPGSV,3,2,12,18,56,132,43,21,55,154,39,23,,,44,25,23,112,37*4E
$GPGSV,3,3,12,26,57,299,45,27,04,247,24,29,51,056,44,31,56,219,46*7C
$GPGLL,4741.81970,N,00055.05224,W,141821.00,A,A*74
$GPRMC,141822.00,A,4741.82474,N,00055.08044,W,70.981,284.87,170420,,,A*45
121
$GPVTG,284.87,T,,M,70.319,N,130.231,K,A*02
$GPGGA,141827.00,4741.84992,N,00055.22093,W,1,09,1.17,61.0,M,47.3,M,,*7C
$GPGSA,A,3,21,26,18,25,04,31,29,16,05,,,,2.00,1.17,1.62*04
$GPGSV,3,1,11,04,11,310,34,05,11,050,28,09,02,341,,16,25,295,45*72
$GPGSV,3,2,11,18,56,132,45,21,55,154,37,25,23,112,34,26,57,299,45*72
$GPGSV,3,3,11,27,04,247,31,29,51,056,46,31,56,219,45*4F
$GPGLL,4741.84992,N,00055.22093,W,141827.00,A,A*70
$GPRMC,141828.00,A,4741.85487,N,00055.24888,W,70.255,284.71,170420,,,A*49
122
$GPVTG,284.31,T,,M,70.830,N,131.177,K,A*0F
$GPGGA,141833.00,4741.87918,N,00055.38903,W,1,08,1.33,70.1,M,47.3,M,,*75
$GPGSA,A,3,21,26,18,25,04,31,29,16,,,,,2.15,1.33,1.68*09
$GPGSV,3,1,11,04,11,310,32,05,11,050,,09,02,341,,16,25,295,44*7F
$GPGSV,3,2,11,18,56,132,43,21,55,154,37,25,23,112,37,26,57,299,44*76
$GPGSV,3,3,11,27,04,247,20,29,51,056,43,31,56,219,44*4B
$GPGLL,4741.87918,N,00055.38903,W,141833.00,A,A*7F
$GPRMC,141834.00,A,4741.88405,N,00055.41730,W,71.070,284.38,170420,,,A*45
123
$GPVTG,284.33,T,,M,71.783,N,132.942,K,A*06
$GPGGA,141839.00,4741.90742,N,00055.56025,W,1,08,1.33,74.6,M,47.3,M,,*7E
$GPGSA,A,3,21,26,18,25,04,31,29,16,,,,,2.15,1.33,1.68*09
$GPGSV,3,1,11,04,11,310,38,05,11,050,,09,02,341,,16,25,295,43*72
$GPGSV,3,2,11,18,56,132,24,21,55,154,24,25,23,112,35,26,57,299,41*72
$GPGSV,3,3,11,27,04,247,,29,51,056,30,31,56,219,32*4C
$GPGLL,4741.90742,N,00055.56025,W,141839.00,A,A*77
$GPRMC,141840.00,A,4741.91303,N,00055.58869,W,72.337,286.16,170420,,,A*49
124
$GPVTG,288.98,T,,M,71.945,N,133.242,K,A*05
$GPGGA,141845.00,4741.94311,N,00055.73050,W,1,08,1.33,75.0,M,47.3,M,,*71
$GPGSA,A,3,21,26,18,25,04,31,29,16,,,,,2.15,1.33,1.68*09
$GPGSV,3,1,12,04,11,310,38,05,11,050,,09,02,341,,16,25,295,45*77
$GPGSV,3,2,12,18,56,132,41,21,55,154,39,23,,,24,25,23,112,35*48
$GPGSV,3,3,12,26,57,299,44,27,04,247,25,29,51,056,39,31,56,219,45*75
$GPGLL,4741.94311,N,00055.73050,W,141845.00,A,A*7F
$GPRMC,141846.00,A,4741.94966,N,00055.75816,W,71.182,289.49,170420,,,A*4E
125
$GPVTG,286.79,T,,M,70.058,N,129.747,K,A*0B
$GPGGA,141851.00,4741.97932,N,00055.89617,W,1,08,1.33,75.0,M,47.3,M,,*7C
$GPGSA,A,3,21,26,18,25,04,31,29,16,,,,,2.14,1.33,1.68*08
